title,house_name,price,position_info,longitude,latitude,url
郎晴居二期 高层南向望江 全景无遮挡,朗晴居二期,54860,滨江中,113.279217,23.116053,https://gz.lianjia.com/ershoufang/GZ0003030524.html
东华花园 南向3房单位 装修保养好,东华花园,23838,市桥,113.401869,22.950737,https://gz.lianjia.com/ershoufang/GZ0003095781.html
侨源山庄 电梯三房两卫 环境优美舒适,侨源山庄雅侨楼,38062,粤垦,113.335,23.16142,https://gz.lianjia.com/ershoufang/GZ0003039386.html
华南碧桂园 翠云山 六米阳光,华南碧桂园翠云山,29818,华南,113.383863,23.00782,https://gz.lianjia.com/ershoufang/GZ0003039466.html
珠江帝景苑克莱公寓 高层五房 业主诚心售,珠江帝景苑克莱国际公寓灏景轩,63025,赤岗,113.333391,23.110206,https://gz.lianjia.com/ershoufang/GZ0002550957.html
一尺山居高层三房 过五年住房,广州雅居乐花园一尺山居,37000,华南,113.365809,23.015465,https://gz.lianjia.com/ershoufang/GZ0002716501.html
芳草园 精装三房 大型花园小区 安静,芳草园A区,72619,天河北,113.343452,23.147606,https://gz.lianjia.com/ershoufang/GZ0002839515.html
南向 三房 全新装修 即买即住,方圆月岛,93000,珠江新城中,113.33694,23.12512,https://gz.lianjia.com/ershoufang/GZ0002235949.html
小北下塘西路 靠山望林 双阳台三房隔局,下塘西路,26667,麓景,113.2808,23.151624,https://gz.lianjia.com/ershoufang/GZ0003095984.html
华南碧桂园碧翠苑南向大两房靠会所100米,华南碧桂园碧翠苑,29750,华南,113.365891,23.001004,https://gz.lianjia.com/ershoufang/GZ0003050869.html
陈家祠 龙津大厦 三房两厅 交通便利,龙津大厦,40000,西关,113.25266,23.129003,https://gz.lianjia.com/ershoufang/GZ0002980281.html
豪景花园 采光好 格局方正,豪景花园,34837,粤垦,113.32241,23.160951,https://gz.lianjia.com/ershoufang/GZ0003046161.html
尚东美御 实用四房 望珠江公园 景观优,尚东美御,72626,珠江新城东,113.340488,23.129151,https://gz.lianjia.com/ershoufang/GZ0002301966.html
旭景家园 温馨三房 安静望花园,旭景家园A区,38319,东圃,113.40837,23.134231,https://gz.lianjia.com/ershoufang/GZ0002243262.html
保利花园 楼梯实用三房交通方便 望花园,保利花园静雅街,41852,工业大道中,113.280555,23.078785,https://gz.lianjia.com/ershoufang/GZ0002754310.html
珠岛花园 五期 四房二厅 间隔方正实用,珠岛花园五期,34039,大坦沙,113.22948,23.13575,https://gz.lianjia.com/ershoufang/GZ0002768256.html
华景陶然庭苑 东南向三房 精装修 户型好,华景新城陶然庭园,63766,华景新城,113.36671,23.14856,https://gz.lianjia.com/ershoufang/GZ0002879712.html
华景新城五期 电梯大三房带主套 新装修,华景新城怡华台,57143,华景新城,113.368997,23.146483,https://gz.lianjia.com/ershoufang/GZ0002945412.html
白云明珠广场 新精装修 房入房两房 总价,机场路华明街白云明珠广场,33147,机场路,113.265292,23.187554,https://gz.lianjia.com/ershoufang/GZ0003082596.html
聚德花园 2000年楼龄 南向电梯两房,聚德花园,36364,赤岗,113.338396,23.08985,https://gz.lianjia.com/ershoufang/GZ0002722805.html
翠拥华庭锋尚 精致一房 保养好,翠拥华庭锋尚,43023,车陂,113.400459,23.133303,https://gz.lianjia.com/ershoufang/GZ0002785514.html
金碧花园三期 安静望花园 户型好 地铁口,金碧花园第三金碧,45192,金碧,113.295173,23.071178,https://gz.lianjia.com/ershoufang/GZ0002641636.html
江南新村 户型方正 交通方便,江南新村2街,16646,市桥,113.365443,22.965093,https://gz.lianjia.com/ershoufang/GZ0002876762.html
东川路 地铁沿线 南向两房出售,东川路,48249,东川路,113.29281,23.130016,https://gz.lianjia.com/ershoufang/GZ0002344377.html
协和新世界 正宗的一房一厅 花园小区,协和新世界,76596,天河北,113.344584,23.147957,https://gz.lianjia.com/ershoufang/GZ0003002081.html
侨基花园 电梯景观 采光好,侨基花园,22342,市桥,113.365764,22.961459,https://gz.lianjia.com/ershoufang/GZ0003046330.html
自在城市花园 温馨三房 望花园单位,自在城市花园自在华庭,29623,华南,113.356896,22.994109,https://gz.lianjia.com/ershoufang/GZ0003010812.html
怡港花园 东南向大三房 高层,怡港花园怡康楼,44625,区府,113.459103,23.105693,https://gz.lianjia.com/ershoufang/GZ0003020216.html
时代玫瑰园 大三房 南向望花园 厅出阳台,时代玫瑰园,40844,白云大道北,113.292806,23.230914,https://gz.lianjia.com/ershoufang/GZ0003067932.html
海珠半岛花园 市区临江三房,海珠半岛花园,54444,滨江东,113.301627,23.109824,https://gz.lianjia.com/ershoufang/GZ0002862991.html
时代玫瑰园 大三房 南向望花园 厅出阳台,时代玫瑰园,40844,白云大道北,113.292806,23.230914,https://gz.lianjia.com/ershoufang/GZ0003067932.html
东海花园 望花园两房,东海花园,39541,洛溪,113.322524,23.040005,https://gz.lianjia.com/ershoufang/GZ0003035431.html
第三金碧 南向三房中高层安静望花园望江景,金碧花园第三金碧,45341,金碧,113.295173,23.071178,https://gz.lianjia.com/ershoufang/GZ0002849699.html
万科城市花园实用精装高层两房新装修,万科城市花园,37015,区府,113.475207,23.111503,https://gz.lianjia.com/ershoufang/GZ0002876732.html
侨诚花园 温馨舒适两房 家私电器全齐,侨诚花园秋月苑,35167,金碧,113.297901,23.074713,https://gz.lianjia.com/ershoufang/GZ0002984717.html
实用温馨单位 配套完善,聚德花园,37857,赤岗,113.338396,23.08985,https://gz.lianjia.com/ershoufang/GZ0003076953.html
交通便利房源 方正三房 采光好,富丽家园富海居,26087,大石,113.323421,23.022272,https://gz.lianjia.com/ershoufang/GZ0003100065.html
天朗明居厅出两房 安静望花园 采光好,富力天朗明居N区,46795,棠下,113.397799,23.133817,https://gz.lianjia.com/ershoufang/GZ0002987873.html
南华花园 实用两房两厅 格局通风好,南华花园,33001,新港西,113.295201,23.093145,https://gz.lianjia.com/ershoufang/GZ0002964344.html
趣园南街 南向3房 带固定露天车位出售,锦绣生态园趣园,21399,钟村,113.31477,22.979686,https://gz.lianjia.com/ershoufang/GZ0002280495.html
银汇华庭 厅出阳台南向大两房,银汇华庭银汇大厦,66977,天润路,113.351248,23.149829,https://gz.lianjia.com/ershoufang/GZ0002608145.html
锦明街 户型方正 两房一厅 采光好,黄埔大道中锦明街,39815,天河公园,113.375967,23.128645,https://gz.lianjia.com/ershoufang/GZ0002849536.html
湖景居  实用三房,祈福新村湖景居,25000,祈福,113.334829,22.96408,https://gz.lianjia.com/ershoufang/GZ0002948690.html
穗园小区 南房两房 舒适单位,穗园小区,61626,天润路,113.3463,23.151544,https://gz.lianjia.com/ershoufang/GZ0002964067.html
荔香花园 温馨两房 装修保养新颖,荔香花园,26840,区府,113.45077,23.102132,https://gz.lianjia.com/ershoufang/GZ0002966980.html
富力桃园 舒适二房 保养通风佳,富力桃园,34838,罗冲围,113.238036,23.15677,https://gz.lianjia.com/ershoufang/GZ0003039057.html
富力天朗明居 精装两房 安静望花园,富力天朗明居S区,42318,棠下,113.398136,23.132471,https://gz.lianjia.com/ershoufang/GZ0002865821.html
华康小区 精装修三房 户型方正,华康小区华升街,58442,体育中心,113.338818,23.144209,https://gz.lianjia.com/ershoufang/GZ0003074401.html
惠城花园 惠景楼单位 交通便利,惠城花园,37864,西关,113.253005,23.128432,https://gz.lianjia.com/ershoufang/GZ0003104688.html
华乐苑 南向大阳台 采光好,华乐苑,41916,新港西,113.320627,23.102557,https://gz.lianjia.com/ershoufang/GZ0002820962.html
紫薇苑 中层单位,紫薇苑,19231,同德围,113.248647,23.185745,https://gz.lianjia.com/ershoufang/GZ0002882451.html
保利红棉花园 楼梯低层 证过五年,保利红棉花园,29553,江燕路,113.284181,23.08123,https://gz.lianjia.com/ershoufang/GZ0002572922.html
侨基花园66方两房 东南向 采光好,侨基花园,24242,市桥,113.365764,22.961459,https://gz.lianjia.com/ershoufang/GZ0003082363.html
下塘西路 大院管理 实用两房,下塘西路,32759,麓景,113.2808,23.151624,https://gz.lianjia.com/ershoufang/GZ0002889862.html
诺德名都 精装三房 高层视野 望小蛮腰,自在城市花园三期诺德名都,34250,华南,113.351946,22.995141,https://gz.lianjia.com/ershoufang/GZ0003073340.html
翠湖山庄 东向望花园 户型方正,翠湖山庄,45783,天河公园,113.359064,23.132577,https://gz.lianjia.com/ershoufang/GZ0003110306.html
天诚广场实用单间 龙口西路 户型好,天诚广场世纪华都,79780,天河北,113.347373,23.148609,https://gz.lianjia.com/ershoufang/GZ0002862123.html
翠安侬苑 舒适三房带主套 高层没遮挡,华景新城翠安侬苑,52682,华景新城,113.36738,23.146628,https://gz.lianjia.com/ershoufang/GZ0002743956.html
岭南新世界 中楼层 南向四房,岭南新世界2D区倚湾园,42500,白云大道北,113.297902,23.237653,https://gz.lianjia.com/ershoufang/GZ0002862128.html
东湖映月 从未入住 南北对流,东湖映月,30284,白云大道北,113.328487,23.280693,https://gz.lianjia.com/ershoufang/GZ0003072313.html
华南碧桂园  实用三房,华南碧桂园芳翠苑,29907,华南,113.366623,22.99971,https://gz.lianjia.com/ershoufang/GZ0003095769.html
太阳广场 精装大三房 安静舒适,太阳广场,59296,天润路,113.34697,23.149613,https://gz.lianjia.com/ershoufang/GZ0002776636.html
实用三房 配套完善 省府,省府宿舍,62136,天河北,113.345636,23.148924,https://gz.lianjia.com/ershoufang/GZ0003045087.html
荔园小区 精装两房 采光好 南北对流,荔园小区荔香二街,31710,区府,113.452317,23.104187,https://gz.lianjia.com/ershoufang/GZ0003097318.html
天河南 六运小区 低楼层 户型方正,六运小区六运二街,50725,天河南,113.331353,23.13537,https://gz.lianjia.com/ershoufang/GZ0003029646.html
珠江帝景 克莱公寓 高层东南向,珠江帝景苑克莱国际公寓灏景轩,63492,赤岗,113.333391,23.110206,https://gz.lianjia.com/ershoufang/GZ0002725277.html
华南碧桂园翠云山  保养好 四房,华南碧桂园翠云山,30000,华南,113.383863,23.00782,https://gz.lianjia.com/ershoufang/GZ0002823455.html
自在城市花园 明苑大三房 楼层好 采光好,自在城市花园自在明苑,27670,华南,113.355571,22.994242,https://gz.lianjia.com/ershoufang/GZ0002907172.html
自在大型小区 温馨三房,自在城市花园自在明苑,29474,华南,113.355571,22.994242,https://gz.lianjia.com/ershoufang/GZ0002986105.html
泰景花园 精装修实用两房 安静不吵,泰景花园文苑阁,30332,区府,113.461162,23.115412,https://gz.lianjia.com/ershoufang/GZ0002905920.html
大石富庭华园 温馨两房 望花园 带天台,富庭华园1街,28386,大石,113.320745,23.0284,https://gz.lianjia.com/ershoufang/GZ0002990768.html
东山雅筑 大型小区 方正大三房 配套成熟,东山雅筑,82197,东风东,113.310673,23.136741,https://gz.lianjia.com/ershoufang/GZ0003008703.html
绿庭雅苑 大三房 东南向,绿庭雅苑,20651,沙湾,113.376766,22.927693,https://gz.lianjia.com/ershoufang/GZ0003097668.html
金碧新城 望花园 视野开阔,金碧新城,35223,石井,113.249526,23.209834,https://gz.lianjia.com/ershoufang/GZ0003107632.html
顺景雅苑 南向三房 交通便利,顺景雅苑顺盈居,42478,新港西,113.299894,23.093735,https://gz.lianjia.com/ershoufang/GZ0003002421.html
金碧领秀国际 实用两房 高层视野开阔,金碧领秀国际,41019,区府,113.467324,23.103322,https://gz.lianjia.com/ershoufang/GZ0003003876.html
塞纳宫 少有三房 详情点击更多房评,海珠花园塞纳宫园,49958,前进路,113.287578,23.105261,https://gz.lianjia.com/ershoufang/GZ0002318343.html
鸿运花园 方正两房 装修保养好,天河鸿运花园,32231,天河公园,113.374251,23.129355,https://gz.lianjia.com/ershoufang/GZ0002742435.html
天朗明居 N区南向采光充足  三房户型,富力天朗明居N区,47751,棠下,113.397799,23.133817,https://gz.lianjia.com/ershoufang/GZ0002779746.html
广州雅居乐花园 一尺山居南向小2房,广州雅居乐花园一尺山居,33125,华南,113.365809,23.015465,https://gz.lianjia.com/ershoufang/GZ0002855955.html
广发新村 精致三房 采光通风,广发新村,29864,赤岗,113.336601,23.100898,https://gz.lianjia.com/ershoufang/GZ0002956426.html
锦绣香江布查特公寓 保养新净 视野好,锦绣香江花园布查特国际公寓,29545,华南,113.349007,23.000304,https://gz.lianjia.com/ershoufang/GZ0002957646.html
华景新城 陶然庭园 低层安静两房,华景新城陶然庭园,54036,华景新城,113.36671,23.14856,https://gz.lianjia.com/ershoufang/GZ0002967722.html
江燕路南景园 大型小区 望花园泳池,南景园馨竹轩,44737,江燕路,113.282733,23.086898,https://gz.lianjia.com/ershoufang/GZ0003073401.html
黄埔花园 南向温馨两房 方正户型,黄埔花园,40283,区府,113.462888,23.104905,https://gz.lianjia.com/ershoufang/GZ0002549296.html
聚德花园 正规一房 户型实用,聚德花园,29114,赤岗,113.338396,23.08985,https://gz.lianjia.com/ershoufang/GZ0002903404.html
金田花园 方正三房 带平台 龙口西**,金田花苑,71579,天河北,113.342589,23.148793,https://gz.lianjia.com/ershoufang/GZ0002276326.html
晓园新村 东南向大两房 带天台花园,晓园新村晓园新,24000,昌岗,113.287625,23.092596,https://gz.lianjia.com/ershoufang/GZ0003086982.html
美林海岸花园 复式三层7房 视野开阔通风,美林海岸花园翠堤湾畔,48077,员村,113.378105,23.120552,https://gz.lianjia.com/ershoufang/GZ0002756321.html
金田花苑二期 精装3房 户型方正,金田花苑,56667,天河北,113.342589,23.148793,https://gz.lianjia.com/ershoufang/GZ0002890216.html
翡翠绿洲 高层复式单位 挑高9米可做,翡翠绿洲森林半岛,19324,新塘,113.565886,23.142768,https://gz.lianjia.com/ershoufang/GZ0003003180.html
天誉花园一期  交通便利 原始格局,天誉花园,45817,天河北,113.332917,23.151935,https://gz.lianjia.com/ershoufang/GZ0002200009.html
洛湖居 复式 保养新,芳华花园洛湖居,23968,洛溪,113.312432,23.049833,https://gz.lianjia.com/ershoufang/GZ0002405182.html
新世界东逸花园 方正3房 实用率92%,新世界东逸花园,60000,天河公园,113.366409,23.134098,https://gz.lianjia.com/ershoufang/GZ0002604492.html
鸿翔大厦 大三房 户型方正 配套成熟,鸿翔大厦,60165,天河北,113.347724,23.147658,https://gz.lianjia.com/ershoufang/GZ0002649504.html
美林海岸花园 精装修  东南 实用,美林海岸花园云河轩,57143,员村,113.380396,23.1202,https://gz.lianjia.com/ershoufang/GZ0002747768.html
华乐苑 电梯两房 业主新装修,华乐苑,43386,新港西,113.320627,23.102557,https://gz.lianjia.com/ershoufang/GZ0002748897.html
太阳广场 西南两房可改三房 精装修,太阳广场,60926,天润路,113.34697,23.149613,https://gz.lianjia.com/ershoufang/GZ0002752878.html
保利花园 电梯复式4房 交通便利,保利花园保康路,50945,工业大道中,113.281655,23.077097,https://gz.lianjia.com/ershoufang/GZ0002197261.html
时尚明苑 地铁BRT 高层东向两房,时尚明苑,46923,车陂,113.400706,23.131288,https://gz.lianjia.com/ershoufang/GZ0002922709.html
荔湾路荔京阁  方正实用三房 高层带主套,荔京阁,48029,荔湾路,113.250515,23.136541,https://gz.lianjia.com/ershoufang/GZ0003041939.html
花园江景尽收眼底 近市二宫地铁 大三房,中海名都,58559,滨江中,113.282006,23.114544,https://gz.lianjia.com/ershoufang/GZ0003043208.html
小区管理 通风采光好 格局方正,越华大厦,45175,农讲所,113.279832,23.134302,https://gz.lianjia.com/ershoufang/GZ0003051322.html
易丰大厦 户型方正 精装三房 交通便利,易丰大厦,60000,天河公园,113.358932,23.134604,https://gz.lianjia.com/ershoufang/GZ0003064976.html
金道花园 温馨电梯两房 配套完善,金道花园金光大街,29715,鹤洞,113.240535,23.077463,https://gz.lianjia.com/ershoufang/GZ0003095718.html
中海安静两房 户型方正 花园小区,中海名都,57170,滨江中,113.282006,23.114544,https://gz.lianjia.com/ershoufang/GZ0003095832.html
阳光假日园 南向小3房 格局方正,阳光假日园,50799,棠下,113.398451,23.13493,https://gz.lianjia.com/ershoufang/GZ0003066933.html
天朗明居 南北对流两房 温馨舒适居家,富力天朗明居S区,48485,棠下,113.398136,23.132471,https://gz.lianjia.com/ershoufang/GZ0003067257.html
保利花园 电梯南向三房 实用舒适单位,保利花园镜湖西街,46396,工业大道中,113.280613,23.077251,https://gz.lianjia.com/ershoufang/GZ0003082281.html
时尚名苑 交通便利 户型方正三房,时尚明苑,47558,车陂,113.400706,23.131288,https://gz.lianjia.com/ershoufang/GZ0003095737.html
东山一品 间隔方正 光线良好 楼新安静,嘉富广场东山一品,80909,水荫,113.318,23.145884,https://gz.lianjia.com/ershoufang/GZ0002245485.html
尚河居 电梯2房1厅 通风采光好 北向,尚河居,60000,天河南,113.326293,23.13712,https://gz.lianjia.com/ershoufang/GZ0003052890.html
天河北 天誉华庭 南北对流 厅大房大,天誉华庭,58125,龙口西,113.34354,23.144709,https://gz.lianjia.com/ershoufang/GZ0002723034.html
白云高尔夫花园 精致两房 有花园,白云高尔夫花园西区,32083,黄石路,113.272629,23.207087,https://gz.lianjia.com/ershoufang/GZ0002763245.html
名汇商业大厦 商业繁华 配套成熟,名汇商业大厦,33474,西关,113.253638,23.120926,https://gz.lianjia.com/ershoufang/GZ0002973113.html
高层精装修三房 送入户花园 可望江,富力银禧花园,66243,滨江东,113.299584,23.107896,https://gz.lianjia.com/ershoufang/GZ0002649386.html
华南碧桂园 翠云山六米南向大四房,华南碧桂园翠云山,31183,华南,113.383863,23.00782,https://gz.lianjia.com/ershoufang/GZ0002763351.html
浅山小筑 双阳台对流 望山望别墅景观,广州雅居乐花园浅山小筑,35926,华南,113.376764,23.010616,https://gz.lianjia.com/ershoufang/GZ0002787990.html
翠山蓝天4房 精装修  望花园,华南碧桂园翠山蓝天苑,33121,华南,113.362499,23.009352,https://gz.lianjia.com/ershoufang/GZ0002802560.html
富基广场 实用方正三房带主套,富基广场,45548,滨江中,113.278719,23.114925,https://gz.lianjia.com/ershoufang/GZ0002821047.html
岭南新世界 高层望花园 小三房,岭南新世界,43820,白云大道北,113.298809,23.240432,https://gz.lianjia.com/ershoufang/GZ0002865709.html
"翠云山大3房,景观好,望别墅,装修新",华南碧桂园翠云山,30455,华南,113.383863,23.00782,https://gz.lianjia.com/ershoufang/GZ0002867992.html
海珠半岛花园 江景 南北通透,海珠半岛花园,53369,滨江东,113.301627,23.109824,https://gz.lianjia.com/ershoufang/GZ0002902557.html
星河湾 荟心园 楼层好 采光好 看楼方便,广州星河湾荟心园,40541,华南,113.346408,23.033435,https://gz.lianjia.com/ershoufang/GZ0002953003.html
美林海岸花园 精装三房 保养非常好,美林海岸花园美林湾畔,64110,员村,113.37926,23.120557,https://gz.lianjia.com/ershoufang/GZ0002987409.html
锦明街小区 方正三房 厅出阳台,黄埔大道中锦明街,37506,天河公园,113.375967,23.128645,https://gz.lianjia.com/ershoufang/GZ0002990307.html
实用三房 精装修 安静舒适,水利电力学院教师宿舍,49263,天润路,113.341692,23.151067,https://gz.lianjia.com/ershoufang/GZ0002973345.html
温馨一房 格局方正 户型方正,振东花园,26089,东圃,113.416441,23.131135,https://gz.lianjia.com/ershoufang/GZ0003106586.html
锦绣香江山水园 精装修3房 采光好通风佳,锦绣香江花园山水园,39229,华南,113.342903,23.000994,https://gz.lianjia.com/ershoufang/GZ0002954545.html
育蕾小区 大两房 精装修 采光好,育蕾小区育蕾三街,46575,天河南,113.329367,23.134249,https://gz.lianjia.com/ershoufang/GZ0003003597.html
金碧花园 地铁就在家门囗 安静望花园,金碧花园第三金碧,43565,金碧,113.295173,23.071178,https://gz.lianjia.com/ershoufang/GZ0002824077.html
阳光假日园 中层两房 精装修,阳光假日园,46132,棠下,113.398451,23.13493,https://gz.lianjia.com/ershoufang/GZ0002846182.html
实用舒适单位 配套完善,小北路,52000,小北,113.278824,23.143018,https://gz.lianjia.com/ershoufang/GZ0002958834.html
骏景花园 南苑南向 户型方正 看房方便,骏景花园南苑骏扬轩,59242,棠下,113.390028,23.127383,https://gz.lianjia.com/ershoufang/GZ0003009112.html
协和新世界复式六房 南北向 双阳台 吉屋,协和新世界,52306,天河北,113.344584,23.147957,https://gz.lianjia.com/ershoufang/GZ0002396901.html
金田花苑 3室2厅 650万,金田花苑,51181,天河北,113.342589,23.148793,https://gz.lianjia.com/ershoufang/GZ0002649411.html
天晖阁 配套完善 住家舒适 大户型,天晖阁,49587,石牌,113.34078,23.134469,https://gz.lianjia.com/ershoufang/GZ0003065511.html
蓝天苑大3房大主套带入户花园 欧风保养好,华南碧桂园翠山蓝天苑,36645,华南,113.362499,23.009352,https://gz.lianjia.com/ershoufang/GZ0003074067.html
社会科学院宿舍 格局方正  温馨舒适,社会科学院宿舍,36975,黄石路,113.279811,23.204584,https://gz.lianjia.com/ershoufang/GZ0003076894.html
法政路 三房出售,法政路,53414,小北,113.280836,23.138224,https://gz.lianjia.com/ershoufang/GZ0003082748.html
自在温馨三房 望花园,自在城市花园自在康苑,28369,华南,113.35625,22.99326,https://gz.lianjia.com/ershoufang/GZ0003098255.html
远洋明苑 精装修三房 复式单位 保养好,远洋明苑,54217,东圃,113.418651,23.12539,https://gz.lianjia.com/ershoufang/GZ0003105616.html
锦绣生态园 菁华轩 温馨三房,锦绣生态园菁华轩,23060,钟村,113.310821,22.973467,https://gz.lianjia.com/ershoufang/GZ0003105983.html
前进路 实用温馨单位 配套完善,前进路,27466,前进路,113.282184,23.107747,https://gz.lianjia.com/ershoufang/GZ0003107778.html
保利百合 属于大型小区 房子保养好,保利百合花园雅园,46356,江燕路,113.283888,23.080549,https://gz.lianjia.com/ershoufang/GZ0002738689.html
华景新城  改善小三房 高层无遮挡,华景新城陶然庭园,62903,华景新城,113.36671,23.14856,https://gz.lianjia.com/ershoufang/GZ0002884311.html
美林海岸花园 别致小两房 望花园 过五年,美林海岸花园美林湾畔,64525,员村,113.37926,23.120557,https://gz.lianjia.com/ershoufang/GZ0002888213.html
骏逸苑 全南向3房 安静舒适,骏逸苑,65635,珠江新城东,113.35654,23.125634,https://gz.lianjia.com/ershoufang/GZ0002970850.html
映绿华庭 大三房户型方正 保养好拎包入住,富豪山庄映绿华庭,25749,祈福,113.358985,22.977781,https://gz.lianjia.com/ershoufang/GZ0003002992.html
赛拉维 精装三房 户型方正 安静,赛拉维,48565,员村,113.363866,23.127922,https://gz.lianjia.com/ershoufang/GZ0002440618.html
华南碧桂园 翠山蓝天苑 一楼带大花园,华南碧桂园翠山蓝天苑,29412,华南,113.362499,23.009352,https://gz.lianjia.com/ershoufang/GZ0002599126.html
华颖花园 南北对流 方正实用 居家舒适,华颖花园,29007,员村,113.36311,23.126942,https://gz.lianjia.com/ershoufang/GZ0002602513.html
东南向大3房 户型方正 保养新,保利百合花园芳园,45903,江燕路,113.282666,23.078949,https://gz.lianjia.com/ershoufang/GZ0003025986.html
富丽花苑 南北对流 大五房 产权清晰,富丽花苑体育东路,54464,天河南,113.336204,23.135826,https://gz.lianjia.com/ershoufang/GZ0002790150.html
马赛国际公寓 住宅性质 可上户口,马赛国际公寓,41060,珠江新城东,113.357947,23.129949,https://gz.lianjia.com/ershoufang/GZ0002622065.html
美好居 实用3房 采光通透 保养漂亮,美好居,41466,车陂,113.400238,23.131445,https://gz.lianjia.com/ershoufang/GZ0002767813.html
荔湾路荔京阁 中高层方正三房带主套,荔京阁,49841,荔湾路,113.250515,23.136541,https://gz.lianjia.com/ershoufang/GZ0003062530.html
新世纪花园 精装小三房  居住安静舒适,新世纪花园,28546,区府,113.469243,23.105079,https://gz.lianjia.com/ershoufang/GZ0003064148.html
同福中路 荟贤大厦 西南三房,荟贤大厦,49198,宝岗,113.26521,23.109613,https://gz.lianjia.com/ershoufang/GZ0003064926.html
森语星园 实用三房 证过五年,森语星园,38087,南洲,113.321499,23.074158,https://gz.lianjia.com/ershoufang/GZ0003026405.html
富力天朗明居 南向两房带大平台,富力天朗明居S区,46094,棠下,113.398136,23.132471,https://gz.lianjia.com/ershoufang/GZ0002748685.html
天诚广场实用两房 户型方正 少有户型 笋,天诚广场世纪华都,68386,天河北,113.347373,23.148609,https://gz.lianjia.com/ershoufang/GZ0002828783.html
合兴苑低层 带24方平台 可自己用 好房,合兴苑合兴苑,30882,花地大道,113.236936,23.098021,https://gz.lianjia.com/ershoufang/GZ0003086975.html
华江花园 方正两房 满五年 看房方便,华江花园,45599,天河公园,113.361347,23.131295,https://gz.lianjia.com/ershoufang/GZ0002867488.html
员村新街 地铁物业 南北通透,员村三横路员村新街,0,员村,113.372203,23.125869,https://gz.lianjia.com/ershoufang/GZ0002948951.html
保利林语山庄 精装修两房 采光通风好,保利林语山庄7区,32944,科学城,113.460919,23.187706,https://gz.lianjia.com/ershoufang/GZ0002955944.html
时代玫瑰园 东向望花园 精致3房,时代玫瑰园,39154,白云大道北,113.292806,23.230914,https://gz.lianjia.com/ershoufang/GZ0003011632.html
金燕花园 精装三房 户型方正 采光好,金燕花园,39640,粤垦,113.337188,23.163534,https://gz.lianjia.com/ershoufang/GZ0003017651.html
云山居 简装三房 东南向 户型方正,云山居,26471,白云大道北,113.303415,23.218302,https://gz.lianjia.com/ershoufang/GZ0003075949.html
沙面公园小区 精装三房 随时可看,六二三路沙面北街,37356,黄沙,113.249458,23.114004,https://gz.lianjia.com/ershoufang/GZ0003028176.html
瑞康大厦 经济产地 配套完善,瑞康大厦,24893,新港西,113.303411,23.093513,https://gz.lianjia.com/ershoufang/GZ0002640772.html
四季花园 高档住宅 精装修两房 园景单位,四季花园,37597,坑口,113.239208,23.078594,https://gz.lianjia.com/ershoufang/GZ0002716629.html
江南路紫金楼 送天台花园 南向两房,紫金楼,25804,江南大道,113.275326,23.105168,https://gz.lianjia.com/ershoufang/GZ0002724369.html
帝景苑 大三房 房大厅大 业主精心布置,帝景苑,57476,龙口西,113.342976,23.146311,https://gz.lianjia.com/ershoufang/GZ0002747935.html
康怡三房南向 自住保养好 二次装修过,祈福新村康怡居,25568,祈福,113.331753,22.9633,https://gz.lianjia.com/ershoufang/GZ0002748995.html
东方白云花园 电梯南向 3房 安静舒适,东方白云花园,23127,市桥,113.397452,22.95479,https://gz.lianjia.com/ershoufang/GZ0002786148.html
银丰花园 中层2房 南北对流 地铁物业,银丰花园银丰二街,23902,区府,113.461632,23.11499,https://gz.lianjia.com/ershoufang/GZ0002800266.html
翠山蓝天 带入户花园 可改四房,华南碧桂园翠山蓝天苑,38136,华南,113.362499,23.009352,https://gz.lianjia.com/ershoufang/GZ0002824884.html
兴禺大厦 户型方正 采光充足 交通便利,兴禺大厦,30086,粤垦,113.325829,23.159256,https://gz.lianjia.com/ershoufang/GZ0002846769.html
怡侨大厦 老华阳温馨二房 带30方平台,怡侨大厦,63611,体育中心,113.338615,23.147033,https://gz.lianjia.com/ershoufang/GZ0002849664.html
怡侨大厦 老华阳温馨二房 带30方平台,怡侨大厦,63611,体育中心,113.338615,23.147033,https://gz.lianjia.com/ershoufang/GZ0002849664.html
华葆明苑 三房出售 看房方便,华葆明苑,18968,市桥,113.362631,22.945141,https://gz.lianjia.com/ershoufang/GZ0002879325.html
生物药厂宿舍三房 南向望花园 住家之选,省生物药厂宿舍,58271,华景新城,113.365511,23.143427,https://gz.lianjia.com/ershoufang/GZ0002879990.html
波尔多新净两房 间隔方正实用,波尔多庄园,63325,淘金,113.30356,23.149199,https://gz.lianjia.com/ershoufang/GZ0002882147.html
芳草园 厅出阳台两房 南向望花园,芳草园B区,67143,天河北,113.343209,23.148811,https://gz.lianjia.com/ershoufang/GZ0002890495.html
自在城市花园 明苑大三房 楼层好 采光好,自在城市花园自在明苑,28792,华南,113.355571,22.994242,https://gz.lianjia.com/ershoufang/GZ0002899612.html
海珠半岛花园 一线望江,海珠半岛花园,59899,滨江东,113.301627,23.109824,https://gz.lianjia.com/ershoufang/GZ0002935130.html
美林海岸 安静望泳池 景观好 带主套,美林海岸花园海星苑,56881,员村,113.379237,23.119996,https://gz.lianjia.com/ershoufang/GZ0002976439.html
金宇花园 实用2房 可改三房 南向,金宇花园环翠北路,17333,东塱,113.259281,23.068373,https://gz.lianjia.com/ershoufang/GZ0002184993.html
雅怡居 北向一房一厅 安静 配套完善,雅怡居A区,26184,东圃,113.409165,23.125591,https://gz.lianjia.com/ershoufang/GZ0002849668.html
城市假日园 温馨三房 安静舒适,城市假日园,47990,东圃,113.41008,23.132408,https://gz.lianjia.com/ershoufang/GZ0003028743.html
第二金碧花园 新净大三房 安静望花园,金碧花园第二金碧,43868,金碧,113.290416,23.075766,https://gz.lianjia.com/ershoufang/GZ0002901097.html
城市假日园 温馨两房 南向 安静舒适,城市假日园,47163,东圃,113.41008,23.132408,https://gz.lianjia.com/ershoufang/GZ0003018886.html
丽水湾 温馨两房 格局方正,富丽家园丽水湾,32809,大石,113.321105,23.03584,https://gz.lianjia.com/ershoufang/GZ0003063814.html
新燕花园 南向电梯2房 安静舒适,新燕花园C区,47594,粤垦,113.334811,23.168664,https://gz.lianjia.com/ershoufang/GZ0003101672.html
五羊小区 精装东向两房 东山实验小,五羊小区K区,42867,五羊新城,113.317032,23.123789,https://gz.lianjia.com/ershoufang/GZ0003103001.html
富力千禧 舒适奢华,富力千禧花园,62500,新港西,113.291726,23.102415,https://gz.lianjia.com/ershoufang/GZ0003107311.html
洛湖居精装三房 温馨舒适 采光通风好,芳华花园洛湖居,30565,洛溪,113.312432,23.049833,https://gz.lianjia.com/ershoufang/GZ0003104777.html
中怡城市花园 林和西 小户型低总价南向,中怡城市花园,77970,天河北,113.333368,23.149245,https://gz.lianjia.com/ershoufang/GZ0002924629.html
富力天朗明居 高层两房 户形方正采光好,富力天朗明居S区,44872,棠下,113.398136,23.132471,https://gz.lianjia.com/ershoufang/GZ0002744693.html
新世界东逸花园 南向3房,新世界东逸花园,62000,天河公园,113.366409,23.134098,https://gz.lianjia.com/ershoufang/GZ0002750466.html
新月明珠花园 复式单位 电梯高层 采光好,新月明珠花园,30417,大石,113.327027,23.021708,https://gz.lianjia.com/ershoufang/GZ0002867022.html
锦绣花园南区三房两卫 东西对流,锦绣花园南区,22543,钟村,113.31594,22.976988,https://gz.lianjia.com/ershoufang/GZ0003056788.html
南景园东南向高层望花园带平台业主诚心放售,南景园紫云轩,47731,江燕路,113.281062,23.086088,https://gz.lianjia.com/ershoufang/GZ0003060376.html
时代玫瑰园 南北通透 安静舒适,时代玫瑰园,38583,白云大道北,113.292806,23.230914,https://gz.lianjia.com/ershoufang/GZ0003062371.html
白马花园 两房两厅 安静宜居,白马花园,36960,员村,113.361618,23.128502,https://gz.lianjia.com/ershoufang/GZ0003066056.html
嘉裕公馆 精装大三房 户型方正,嘉裕公馆,99829,珠江新城中,113.335327,23.1239,https://gz.lianjia.com/ershoufang/GZ0003078335.html
协和新世界二期 南北向看花园两房,协和新世界,79858,天河北,113.344584,23.147957,https://gz.lianjia.com/ershoufang/GZ0003095567.html
华颖轩 电梯中层 精致三房 适合居家,华颖轩,51977,员村,113.359479,23.128385,https://gz.lianjia.com/ershoufang/GZ0003030179.html
帝景苑 方正四房 安静舒适 采光通风好,帝景苑,60206,龙口西,113.342976,23.146311,https://gz.lianjia.com/ershoufang/GZ0002964857.html
金逸雅居 低楼层 温馨方正三房,金逸雅居,39335,区府,113.463841,23.100712,https://gz.lianjia.com/ershoufang/GZ0003035520.html
南向  高层两房 视野无遮挡 带入户花园,碧桂园凤凰城凤馨苑,22695,新塘,113.606996,23.147009,https://gz.lianjia.com/ershoufang/GZ0002870906.html
福盛花苑 交通方便 地铁口,福盛花苑福怡居,23000,鹤洞,113.252797,23.080236,https://gz.lianjia.com/ershoufang/GZ0002601078.html
富力桃园 主套三房 格局方正,富力桃园,33990,罗冲围,113.238036,23.15677,https://gz.lianjia.com/ershoufang/GZ0002884384.html
保利百合花园 东南向两房 户型方正,保利百合花园绿园,48334,江燕路,113.284,23.079705,https://gz.lianjia.com/ershoufang/GZ0002899229.html
珠江广场 水岸卫城 江景三阳台+大平台,珠江广场水岸卫城（香丽晴居）,62201,滨江东,113.315316,23.109596,https://gz.lianjia.com/ershoufang/GZ0002913129.html
龙光风景华庭三房南向望别墅，采光通风好,龙光峰景华庭,28720,科学城,113.456464,23.194766,https://gz.lianjia.com/ershoufang/GZ0002944010.html
金碧花园南向三房 厅出阳台安静舒适带主套,金碧花园第一金碧,42609,金碧,113.293993,23.075858,https://gz.lianjia.com/ershoufang/GZ0002965118.html
精致二房可改三房 户型方正,龙口东路,49832,天河北,113.34696,23.147878,https://gz.lianjia.com/ershoufang/GZ0003045773.html
南国奥园 二房带花园 户型通透 采光充足,南国奥林匹克花园北奥二路,33298,华南,113.330164,22.99067,https://gz.lianjia.com/ershoufang/GZ0003066188.html
江南西 中层两房 可改三房,江南西路青柳大街,34403,江南西,113.276659,23.099008,https://gz.lianjia.com/ershoufang/GZ0003041061.html
珠岛花园 实用两房 采光通风 保养新净,珠岛花园四期,36408,大坦沙,113.231452,23.137873,https://gz.lianjia.com/ershoufang/GZ0003051709.html
大石富丽广场 方正三房 保养好 楼层适中,富丽家园富丽广场,22936,大石,113.320785,23.024039,https://gz.lianjia.com/ershoufang/GZ0003071430.html
一尺山居南向 厅望园景 房望山景 过五年,广州雅居乐花园一尺山居,38172,华南,113.365809,23.015465,https://gz.lianjia.com/ershoufang/GZ0003074852.html
旭景家园 正规三房 采光通风好,旭景家园D区,36255,东圃,113.409774,23.136455,https://gz.lianjia.com/ershoufang/GZ0003072111.html
美林海岸花园，东南向安静两房，楼层格局好,美林海岸花园美林湾畔,62700,员村,113.37926,23.120557,https://gz.lianjia.com/ershoufang/GZ0003072245.html
粤垦路金燕花园 电梯三房,金燕花园,43124,粤垦,113.337188,23.163534,https://gz.lianjia.com/ershoufang/GZ0003084263.html
天雅阁 实用三房 配套成熟,天雅阁,45504,天润路,113.343888,23.151403,https://gz.lianjia.com/ershoufang/GZ0003087119.html
东方之珠花园 实用一房 采光通风好,东方之珠花园,63272,天河北,113.351923,23.147669,https://gz.lianjia.com/ershoufang/GZ0003040640.html
广地花园 实用三房,广地花园,25000,华南,113.343017,23.027594,https://gz.lianjia.com/ershoufang/GZ0003052680.html
中层大两房 可改3房 配套完善,赤岗一街大院赤岗一街,33094,赤岗,113.336189,23.097204,https://gz.lianjia.com/ershoufang/GZ0002853027.html
鹭苑公寓 保养新净 户型方正,鹭苑公寓,37221,新港西,113.316377,23.103165,https://gz.lianjia.com/ershoufang/GZ0002927675.html
华江花园 南向方正电梯三房 九成使用率,华江花园,49809,天河公园,113.361347,23.131295,https://gz.lianjia.com/ershoufang/GZ0002965093.html
江南西路 紫金大街低层两房一厅 省级名校,江南西路紫金大街,39394,江南西,113.276924,23.102378,https://gz.lianjia.com/ershoufang/GZ0002913136.html
墩美小区  三房二厅 通风采光好,墩美小区,18667,开发区,113.531643,23.083226,https://gz.lianjia.com/ershoufang/GZ0002551119.html
中山大学 温馨两房南北对流 浓郁文化气息,中山大学宿舍园西区,54545,新港西,113.298642,23.102835,https://gz.lianjia.com/ershoufang/GZ0002580845.html
信华花园 高层视野好 读书方便 东南靓向,华景新城信华花园,55057,华景新城,113.371166,23.146359,https://gz.lianjia.com/ershoufang/GZ0002618874.html
汇景新城 中轴地段 四房双主套 少有放卖,汇景新城中央庭院,94636,五山,113.376939,23.155735,https://gz.lianjia.com/ershoufang/GZ0002620149.html
天誉华庭，南北向，精致装修，电梯房,天誉华庭,66496,龙口西,113.34354,23.144709,https://gz.lianjia.com/ershoufang/GZ0002623510.html
美林海岸花园 南向安静望江两房 税少,美林海岸花园逸江湾,62119,员村,113.380274,23.118479,https://gz.lianjia.com/ershoufang/GZ0002646257.html
棠德精装两房 采光好,棠德花园E区,24242,棠下,113.391014,23.140456,https://gz.lianjia.com/ershoufang/GZ0002765639.html
单边位 大三房  高楼层 视野好,华南碧桂园翠云山,31019,华南,113.383863,23.00782,https://gz.lianjia.com/ershoufang/GZ0002803240.html
美林海岸花园 西南靓向 高层望江两房,美林海岸花园临江湾,67779,员村,113.379125,23.118717,https://gz.lianjia.com/ershoufang/GZ0002804360.html
珠江御景湾 实用五房 一线江景,珠江御景湾,32615,南洲,113.345689,23.0572,https://gz.lianjia.com/ershoufang/GZ0002807034.html
五羊新城 南北对流 规整两房 格局方正,东兴南路东兴南街,41566,五羊新城,113.319351,23.128595,https://gz.lianjia.com/ershoufang/GZ0002853867.html
天朗明居 精装2房 格局方正,富力天朗明居S区,46257,棠下,113.398136,23.132471,https://gz.lianjia.com/ershoufang/GZ0002864432.html
珠江新岸  一房一厅 格局方正 保养好,珠江新岸公寓,49161,滨江东,113.321362,23.109582,https://gz.lianjia.com/ershoufang/GZ0002864443.html
大石富丽家园，方正三房，小区环境好,富丽家园,22772,大石,113.326604,23.034769,https://gz.lianjia.com/ershoufang/GZ0002880545.html
海城花苑 精致小两房 中层南向 方正实用,海城花苑,35762,滨江中,113.292172,23.112914,https://gz.lianjia.com/ershoufang/GZ0002889270.html
骏景花园 北苑二期 南向正规四房,骏景花园北苑骏雅轩,52030,棠下,113.394048,23.129905,https://gz.lianjia.com/ershoufang/GZ0002922962.html
华港花园  一梯两户 南向少税安静景观好,华港花园华港南街,65717,天河公园,113.363576,23.13732,https://gz.lianjia.com/ershoufang/GZ0002973163.html
东圃广场，温馨三房，户型方正，交通便利,东圃广场,39103,东圃,113.412607,23.130064,https://gz.lianjia.com/ershoufang/GZ0003003695.html
嘉骏苑 电梯复式 可遇不可求,嘉骏苑,63107,东川路,113.290012,23.126038,https://gz.lianjia.com/ershoufang/GZ0002250286.html
陶然庭苑 前排南向三房 方正户型 家私齐,华景新城陶然庭园,67713,华景新城,113.36671,23.14856,https://gz.lianjia.com/ershoufang/GZ0003053441.html
加拿大花园 精装修两房 位置安静,加拿大花园,42939,华景新城,113.374508,23.142588,https://gz.lianjia.com/ershoufang/GZ0002763545.html
易丰大厦 户型方正 精装两房 交通便利,易丰大厦,53395,天河公园,113.358932,23.134604,https://gz.lianjia.com/ershoufang/GZ0002945386.html
鸿燕居电梯二房 居家装修 交通便利,鸿燕居,37755,粤垦,113.335346,23.165162,https://gz.lianjia.com/ershoufang/GZ0002945865.html
珠江新城  易丰大厦   艺术单间,易丰大厦,53947,天河公园,113.358932,23.134604,https://gz.lianjia.com/ershoufang/GZ0003096267.html
翡翠绿洲 精装两房,翡翠绿洲森林半岛,21457,新塘,113.565886,23.142768,https://gz.lianjia.com/ershoufang/GZ0002644664.html
丰逸尚居 户型方正实用 采光通风好,丰逸尚居,29682,区府,113.474691,23.104665,https://gz.lianjia.com/ershoufang/GZ0002805626.html
骏景花园 精品4房 格局方正 户型实用,骏景花园北苑骏逸轩,43028,棠下,113.391969,23.130087,https://gz.lianjia.com/ershoufang/GZ0002820318.html
珠岛花园 实用四房 东西对流 采光通风,珠岛花园五期,29691,大坦沙,113.22948,23.13575,https://gz.lianjia.com/ershoufang/GZ0002835277.html
嘉仕花园 实用三房带主卫 方正厅出阳台,嘉仕花园,50000,滨江东,113.30178,23.108794,https://gz.lianjia.com/ershoufang/GZ0002837352.html
旭景家园 实用安静三房 厅出阳台采光好,旭景家园B区,39759,东圃,113.409842,23.13363,https://gz.lianjia.com/ershoufang/GZ0002846160.html
保利香槟花园 南北对流 省级** 双阳台,保利香槟花园夏尔(1栋),83333,珠江新城西,113.323146,23.123464,https://gz.lianjia.com/ershoufang/GZ0002882780.html
锦绣香江 山水园 3房 保养好,锦绣香江花园山水园,36364,华南,113.342903,23.000994,https://gz.lianjia.com/ershoufang/GZ0002996960.html
翡翠绿洲 两房可改三房 带装修,翡翠绿洲森林半岛,19541,新塘,113.565886,23.142768,https://gz.lianjia.com/ershoufang/GZ0003012739.html
星河湾星苑5期  高层望花园  保养新净,广州星河湾星苑,40206,华南,113.349199,23.030619,https://gz.lianjia.com/ershoufang/GZ0003016822.html
天寿大厦 华阳3房 户型方正 小区管理好,天寿大厦,58333,天河北,113.339097,23.15319,https://gz.lianjia.com/ershoufang/GZ0002606928.html
江湾花苑 低楼层 大三房两厅 过五年唯一,江湾花苑福宁居,33827,滨江中,113.285161,23.11447,https://gz.lianjia.com/ershoufang/GZ0002445383.html
保利百合花园 南向 带主套送平台花园,保利百合花园二期,42302,江燕路,113.285999,23.080042,https://gz.lianjia.com/ershoufang/GZ0002721495.html
六运小区 方正三房 实用面积大 交通方便,六运小区体育西横街,58824,天河南,113.33315,23.134327,https://gz.lianjia.com/ershoufang/GZ0002725304.html
保利百合花园 电梯实用两房望花园 采光好,保利百合花园二期,45321,江燕路,113.285999,23.080042,https://gz.lianjia.com/ershoufang/GZ0002764782.html
珠江新城东 优雅小区 楼龄新  南向两房,力迅T,60000,天河公园,113.35961,23.131258,https://gz.lianjia.com/ershoufang/GZ0002847105.html
骏鸿花园 4室2厅 336.91万,骏鸿花园,26000,区府,113.466311,23.10336,https://gz.lianjia.com/ershoufang/GZ0002889756.html
尚雅苑两房 装修保养好 南北通透 采光好,尚雅苑尚雅街,49333,天河南,113.338306,23.133565,https://gz.lianjia.com/ershoufang/GZ0002913358.html
东山锦轩南塔 高层精装三房 品质小区,东山锦轩,97759,东山口,113.302356,23.131897,https://gz.lianjia.com/ershoufang/GZ0002970925.html
保利香槟花园 温馨四房 花园小区,保利香槟花园康东(2栋),79963,珠江新城西,113.324449,23.123423,https://gz.lianjia.com/ershoufang/GZ0003000763.html
江湾花苑 低楼层 大三房两厅 过五年唯一,江湾花苑福宁居,33827,滨江中,113.285161,23.11447,https://gz.lianjia.com/ershoufang/GZ0002445383.html
实用舒适单位 温馨户型 配套完善,江南新苑,55000,新港西,113.294946,23.098576,https://gz.lianjia.com/ershoufang/GZ0002737976.html
鸿景园 精致三房 精致装,鸿景园,56989,天润路,113.347776,23.149468,https://gz.lianjia.com/ershoufang/GZ0002871611.html
双子星城 时尚复式两房 证过五年,双子星城星汇轩,39474,新港西,113.305765,23.095427,https://gz.lianjia.com/ershoufang/GZ0002886296.html
万寿路素社三房 采光通风好,素社新村素社二巷,23407,前进路,113.285099,23.110634,https://gz.lianjia.com/ershoufang/GZ0003067060.html
翠湖山庄 方正2房 安静采光好,翠湖山庄,54945,天河公园,113.359064,23.132577,https://gz.lianjia.com/ershoufang/GZ0003073820.html
金燕花园 实用二房,金燕花园,37326,粤垦,113.337188,23.163534,https://gz.lianjia.com/ershoufang/GZ0003078231.html
翡翠绿洲 育才阳光苑 精装两房,翡翠绿洲育才阳光苑,22826,新塘,113.565132,23.138681,https://gz.lianjia.com/ershoufang/GZ0003083280.html
自在城市花园 南向两房 楼层适中 采光充,自在城市花园自在雅苑,29221,华南,113.357004,22.994737,https://gz.lianjia.com/ershoufang/GZ0003095575.html
电梯大三房 户型方正 保养好 望花园,雅致花园南曦阁,43222,江燕路,113.280955,23.080304,https://gz.lianjia.com/ershoufang/GZ0003097468.html
万科城市花园 精致三房 精致装修 高楼层,万科城市花园,40378,区府,113.475207,23.111503,https://gz.lianjia.com/ershoufang/GZ0003067192.html
黄埔花园 方正南向大两房 高楼层 采光好,黄埔花园,39889,区府,113.462888,23.104905,https://gz.lianjia.com/ershoufang/GZ0002996690.html
荔芳园 交通方便配套齐 通风采光好,新城西路,19778,大石,113.317213,23.034006,https://gz.lianjia.com/ershoufang/GZ0002599052.html
华景新城 六期 安静大三房 方正舒适小区,华景新城逸馨居,45918,华景新城,113.366103,23.146681,https://gz.lianjia.com/ershoufang/GZ0002642745.html
和平家园 园景单位 精美三房,和平家园,48617,广州大道南,113.321492,23.092367,https://gz.lianjia.com/ershoufang/GZ0002649939.html
业主置换急售 实用高 看房方便,远洋小区,65246,天河北,113.336715,23.148186,https://gz.lianjia.com/ershoufang/GZ0002652422.html
六运小区 方正两房 东南向中间楼层,六运小区黄埔大道西,46125,天河南,113.332907,23.133625,https://gz.lianjia.com/ershoufang/GZ0002743627.html
华南碧桂园 交通便利 小区环境优雅,华南碧桂园翡翠苑,34710,华南,113.364126,23.00194,https://gz.lianjia.com/ershoufang/GZ0002744705.html
富豪山庄枫林绿洲 南向采光好 保养可以,富豪山庄风林绿洲,21271,祈福,113.357148,22.974298,https://gz.lianjia.com/ershoufang/GZ0002832880.html
易丰大厦 户型方正 精装两房 实用率高,易丰大厦,52276,天河公园,113.358932,23.134604,https://gz.lianjia.com/ershoufang/GZ0002878586.html
保利百合花园 电梯东南向三房 望花园泳池,保利百合花园芳园,48468,江燕路,113.282666,23.078949,https://gz.lianjia.com/ershoufang/GZ0002882119.html
高层精装三房 安静舒适 景观不错,君汇世家,106858,水荫,113.319319,23.141485,https://gz.lianjia.com/ershoufang/GZ0002905998.html
小北路 实用舒适单位 配套完善,小北路九兜一巷,50000,小北,113.279021,23.143217,https://gz.lianjia.com/ershoufang/GZ0002911819.html
晓峰园 南向大平层 五房望景开阔无遮挡,祈福新村晓峰园,29598,祈福,113.32891,22.959972,https://gz.lianjia.com/ershoufang/GZ0002942217.html
汇景新城 小高层 安静优雅 南北对流,汇景新城上城勋堡,65763,五山,113.378924,23.153571,https://gz.lianjia.com/ershoufang/GZ0002947946.html
尚德大厦 格局方正 采光充足,尚德大厦,52857,龙口东,113.350684,23.145828,https://gz.lianjia.com/ershoufang/GZ0003011177.html
广钢鹤平小区 交通方便 地铁沿线小区配套,广钢鹤平小区平东二巷,18182,鹤洞,113.244006,23.078403,https://gz.lianjia.com/ershoufang/GZ0002240243.html
华景芳满庭园 北向精装两房,华景新城芳满庭园,56962,华景新城,113.369342,23.147573,https://gz.lianjia.com/ershoufang/GZ0002262570.html
新世界东逸花园 方正3房 安静舒适,新世界东逸花园,64771,天河公园,113.366409,23.134098,https://gz.lianjia.com/ershoufang/GZ0002272483.html
间隔方正 复式单位,光大花园康榕苑,42897,工业大道北,113.264836,23.094069,https://gz.lianjia.com/ershoufang/GZ0002359692.html
隽园小区 实用三房 带主套 装修保养好,隽园,68616,天河公园,113.367537,23.136859,https://gz.lianjia.com/ershoufang/GZ0002607857.html
保利林语山庄 实用大三房 装修保养好,保利林语山庄6区,33233,科学城,113.460551,23.188171,https://gz.lianjia.com/ershoufang/GZ0002610292.html
朱美拉公寓  家电齐全 交通方便,朱美拉公寓,74306,珠江新城中,113.335255,23.125138,https://gz.lianjia.com/ershoufang/GZ0002610804.html
芳草园 小区花园，大两房，格局方正。,芳草园A区,68023,天河北,113.343452,23.147606,https://gz.lianjia.com/ershoufang/GZ0003068609.html
金影花园 温馨两房 保养新净,金影花园,36705,赤岗,113.32757,23.09863,https://gz.lianjia.com/ershoufang/GZ0003027307.html
桥福园 地铁一线 温馨3房 精装修,桥福园桥安楼,18400,市桥,113.38947,22.955668,https://gz.lianjia.com/ershoufang/GZ0002309703.html
易丰大厦 采光通风好,易丰大厦,51095,天河公园,113.358932,23.134604,https://gz.lianjia.com/ershoufang/GZ0003038169.html
嘉仕花园，三房单位，格局方正,嘉仕花园尚海轩,63462,滨江东,113.30178,23.109143,https://gz.lianjia.com/ershoufang/GZ0003050685.html
南国奥园 温馨三房 复式 双阳台,南国奥林匹克花园洛杉矶,32643,华南,113.332172,22.995249,https://gz.lianjia.com/ershoufang/GZ0003054119.html
文昌南路 底层两房可改三房 南向厅阳台,文昌南路翁源巷,29919,西关,113.249877,23.120363,https://gz.lianjia.com/ershoufang/GZ0002644305.html
翠拥华庭锋尚 正规一房  双地铁,翠拥华庭锋尚,41718,车陂,113.400459,23.133303,https://gz.lianjia.com/ershoufang/GZ0002784841.html
华景新城六期 南北向复式六房 视野开阔,华景新城逸雅居,46241,华景新城,113.36865,23.147109,https://gz.lianjia.com/ershoufang/GZ0002621674.html
芳草园方正两房 正南向 装修保养好,芳草园B区,76531,天河北,113.343209,23.148811,https://gz.lianjia.com/ershoufang/GZ0002623190.html
淘金路 低层大三房 华侨外国语,淘金路,50000,淘金,113.294135,23.145406,https://gz.lianjia.com/ershoufang/GZ0002741828.html
桥福园 复式三阳台 南北对流,桥福园桥逸居,20070,市桥,113.390283,22.953226,https://gz.lianjia.com/ershoufang/GZ0002817773.html
嘉鸿花园 带大独立露台 交通方便,嘉鸿花园,51214,金碧,113.298022,23.072359,https://gz.lianjia.com/ershoufang/GZ0002834840.html
半山雍景苑 实用三房 装修新正 安静舒适,半山雍景苑,51052,五山,113.370916,23.150409,https://gz.lianjia.com/ershoufang/GZ0002838204.html
黄埔雅苑 电梯温馨 三房户型,黄埔新村黄埔雅苑,37079,区府,113.467182,23.107624,https://gz.lianjia.com/ershoufang/GZ0002838887.html
珠岛花园 精致靓向 精装三房 预约睇楼,珠岛花园五期,37195,大坦沙,113.22948,23.13575,https://gz.lianjia.com/ershoufang/GZ0002847110.html
汇景新城 方正三房 视野开阔 包车位,汇景新城上城勋堡,80745,五山,113.378924,23.153571,https://gz.lianjia.com/ershoufang/GZ0002873673.html
天河直街 实用三房两厅 格局方正 居家好,天河路天河直街,48936,体育中心,113.324633,23.14249,https://gz.lianjia.com/ershoufang/GZ0002914139.html
昊龙花园 103方靓装三房 带出租车位,昊龙花园南区,28736,沙湾,113.36672,22.92104,https://gz.lianjia.com/ershoufang/GZ0002924970.html
富力桃园 精装修两房 东南向 通风采光好,富力桃园,38000,罗冲围,113.238036,23.15677,https://gz.lianjia.com/ershoufang/GZ0002935611.html
美林海岸花园 高层望江3房 装修保养好,美林海岸花园临江湾,61069,员村,113.379125,23.118717,https://gz.lianjia.com/ershoufang/GZ0002945473.html
天朗明居南向两房 南北通透 高层视野好,富力天朗明居N区,49839,棠下,113.397799,23.133817,https://gz.lianjia.com/ershoufang/GZ0002970588.html
广东工贸职业技术学院 精装三房,广东工贸职业技术学院,33143,沙太南,113.324526,23.177429,https://gz.lianjia.com/ershoufang/GZ0002984298.html
金麓山庄 电梯三房 全明屋,金麓山庄,48898,麓景,113.27995,23.154996,https://gz.lianjia.com/ershoufang/GZ0002988234.html
实用舒适单位 配套完善,华侨乐园,55592,淘金,113.29716,23.149294,https://gz.lianjia.com/ershoufang/GZ0002989863.html
翠宏台 带入户花园 可改四房,华南碧桂园翠宏台,34586,华南,113.368864,23.003678,https://gz.lianjia.com/ershoufang/GZ0002990225.html
富力新村 三房精装 安静 东圃大马路旁,富力新村,28371,东圃,113.41048,23.126659,https://gz.lianjia.com/ershoufang/GZ0003010869.html
教育学院 校园环境 南向一房一厅 装修新,广东教育学院7栋,26471,赤岗,113.325081,23.103009,https://gz.lianjia.com/ershoufang/GZ0003020032.html
名汇商业大厦 高层 朝向好 通风采光佳,名汇商业大厦,39320,西关,113.253638,23.120926,https://gz.lianjia.com/ershoufang/GZ0003112301.html
自在城市花园二期 精装修装修 自住保养好,自在城市花园二期诺德中心城,30151,华南,113.357333,22.995382,https://gz.lianjia.com/ershoufang/GZ0003043516.html
新丽苑 三房两厅 交通方便,新丽苑,17462,龙溪,113.194771,23.077419,https://gz.lianjia.com/ershoufang/GZ0002185788.html
华景新城五期 电梯三房 安静采光好,华景新城怡华台,50549,华景新城,113.368997,23.146483,https://gz.lianjia.com/ershoufang/GZ0002185915.html
共和原装电梯 铁一 三房带主套双阳台,教师宿舍,67708,杨箕,113.314667,23.129785,https://gz.lianjia.com/ershoufang/GZ0002606284.html
华南碧桂园  诚意出售 心动不如,华南碧桂园翡翠苑,35769,华南,113.364126,23.00194,https://gz.lianjia.com/ershoufang/GZ0002618467.html
美林海岸 安静望泳池  带主套 带平台,美林海岸花园海星苑,58532,员村,113.379237,23.119996,https://gz.lianjia.com/ershoufang/GZ0003027745.html
锦绣香江 丁香园联排别墅 实用私家花园,锦绣香江花园丁香园,58896,华南,113.346492,23.001218,https://gz.lianjia.com/ershoufang/GZ0003033709.html
易丰大厦 安静东向 望花园实用2房,易丰大厦,61083,天河公园,113.358932,23.134604,https://gz.lianjia.com/ershoufang/GZ0002977220.html
新装单身一房 户型方正 安静舒适,鸿翔大厦,86935,天河北,113.347724,23.147658,https://gz.lianjia.com/ershoufang/GZ0002396317.html
锦绣香江山水园 采光好 近地铁 三房,锦绣香江花园山水园,38252,华南,113.342903,23.000994,https://gz.lianjia.com/ershoufang/GZ0002814228.html
珠江帝景 安静望花园五房 精装主卧带阳台,珠江帝景苑克莱国际公寓灏景轩,52550,赤岗,113.333391,23.110206,https://gz.lianjia.com/ershoufang/GZ0002331474.html
天诚广场 南向3房 户型方正 采光好,天诚广场,55182,天河北,113.347364,23.148405,https://gz.lianjia.com/ershoufang/GZ0003044321.html
凤凰城凤馨苑 南向温馨三房,碧桂园凤凰城凤馨苑,25431,新塘,113.606996,23.147009,https://gz.lianjia.com/ershoufang/GZ0003050673.html
翡翠绿洲 森林半岛 南北对流两房,翡翠绿洲森林半岛,20462,新塘,113.565886,23.142768,https://gz.lianjia.com/ershoufang/GZ0003064982.html
前进路 中层三房 配套完善,前进路,26923,前进路,113.282184,23.107747,https://gz.lianjia.com/ershoufang/GZ0003030448.html
翠绿洲 精装三房 望花园 东西向,翡翠绿洲森林半岛,21088,新塘,113.565886,23.142768,https://gz.lianjia.com/ershoufang/GZ0002620643.html
东丽园  四房出售  少有放盘,东丽园五街,24000,市桥,113.382736,22.93741,https://gz.lianjia.com/ershoufang/GZ0002723974.html
迎宾路 自在城市花园 自在豪庭,自在城市花园自在豪庭,27052,华南,113.35501,22.995223,https://gz.lianjia.com/ershoufang/GZ0002737364.html
马赛国际公寓 方正三房 精装修 保养好,马赛国际公寓,65694,珠江新城东,113.357947,23.129949,https://gz.lianjia.com/ershoufang/GZ0002763485.html
美林海岸花园 视野开阔望花园安静,美林海岸花园蓝月湾畔,61523,员村,113.377683,23.119713,https://gz.lianjia.com/ershoufang/GZ0002783505.html
东方名都 配套成熟 位置安静 视野开阔,东方名都,26047,新塘,113.599703,23.130007,https://gz.lianjia.com/ershoufang/GZ0002793322.html
怡侨大厦 电梯 华阳** 大三房,怡侨大厦,59434,体育中心,113.338615,23.147033,https://gz.lianjia.com/ershoufang/GZ0002847169.html
珠江俊园 安静温馨三居 户型好看小区花园,珠江俊园,62408,华景新城,113.373183,23.141238,https://gz.lianjia.com/ershoufang/GZ0002853144.html
省水科院 东西对流 通风采光好,省水科院,73864,天润路,113.340025,23.150999,https://gz.lianjia.com/ershoufang/GZ0002942082.html
芳草园 东南向三房 精装修 厅出阳台望花,芳草园B区,79688,天河北,113.343209,23.148811,https://gz.lianjia.com/ershoufang/GZ0002568704.html
跑马地花园 正规两房一厅 通风透气,跑马地花园,56601,珠江新城东,113.357021,23.129775,https://gz.lianjia.com/ershoufang/GZ0003099517.html
云泉居 精致三房 视野好,云泉居,26957,白云大道北,113.293565,23.222856,https://gz.lianjia.com/ershoufang/GZ0003060626.html
泓景花园 北向实用三房 装修保养好,泓景花园,57615,赤岗,113.335085,23.104655,https://gz.lianjia.com/ershoufang/GZ0002870015.html
实用舒适单位 五房一厅 配套完善,麓景路上塘街,34127,麓景,113.284339,23.150092,https://gz.lianjia.com/ershoufang/GZ0002981840.html
正规一房一厅 南向望江 视野开扬,绿地滨江汇,30328,工业大道中,113.280019,23.07161,https://gz.lianjia.com/ershoufang/GZ0002888078.html
翡翠绿洲 森林半岛 精装三房,翡翠绿洲森林半岛,23749,新塘,113.565886,23.142768,https://gz.lianjia.com/ershoufang/GZ0002999055.html
新月明珠花园 精装四房 交通便利 环境好,新月明珠花园,37209,大石,113.327027,23.021708,https://gz.lianjia.com/ershoufang/GZ0003008981.html
棠德花园 温馨2房 户型好 方正实用,棠德花园A区,27049,棠下,113.388234,23.138665,https://gz.lianjia.com/ershoufang/GZ0002643876.html
穗园小区 东北三房 精装修 安静舒适,穗园小区,63218,天润路,113.3463,23.151544,https://gz.lianjia.com/ershoufang/GZ0002751105.html
裕福花园  近地铁  小区环境好,裕福花园,31353,市桥,113.360611,22.95434,https://gz.lianjia.com/ershoufang/GZ0002790924.html
淘金坑 东南向两房 华侨外国语,淘金路淘金坑,47146,淘金,113.293053,23.145061,https://gz.lianjia.com/ershoufang/GZ0002815167.html
富力桃园 D区高层3房,富力桃园,36000,罗冲围,113.238036,23.15677,https://gz.lianjia.com/ershoufang/GZ0002852369.html
凤凰城凤馨苑 位置安静,碧桂园凤凰城凤馨苑,23398,新塘,113.606996,23.147009,https://gz.lianjia.com/ershoufang/GZ0002888360.html
愉景雅苑 电梯两房 安静不吵,愉景雅苑翠林居,52840,新港西,113.320439,23.103836,https://gz.lianjia.com/ershoufang/GZ0002913820.html
天河北苑 实用四房 精装修,天河北苑B栋鸿兴阁,31326,沙太南,113.333395,23.172264,https://gz.lianjia.com/ershoufang/GZ0002922298.html
万科城市花园 实用大三房 带前后大花园,万科城市花园,40571,区府,113.475207,23.111503,https://gz.lianjia.com/ershoufang/GZ0002927425.html
顺德碧桂园芷兰湾 电梯三房出售,顺德碧桂园芷兰湾,15766,钟村,113.281626,22.958325,https://gz.lianjia.com/ershoufang/GZ0002935824.html
光复北路 步梯实用三室 南向单位 采光好,光复北路,22947,西华路,113.259888,23.133056,https://gz.lianjia.com/ershoufang/GZ0002947616.html
世家 四房双主套 中层安静望花园,汇景新城世家,62671,五山,113.379016,23.155086,https://gz.lianjia.com/ershoufang/GZ0002971714.html
云裳丽影 方正宽敞3房 装修保养好,云裳丽影,51961,同和,113.334815,23.199756,https://gz.lianjia.com/ershoufang/GZ0002986763.html
世家 四房双主套 高层单位 视野开阔,汇景新城世家,67147,五山,113.379016,23.155086,https://gz.lianjia.com/ershoufang/GZ0003083716.html
万科城市花园 实用三房 交通方便,万科城市花园,35638,区府,113.475207,23.111503,https://gz.lianjia.com/ershoufang/GZ0003101193.html
祥辉广场 实用三房 安静不吵,祥辉广场,20335,区府,113.486696,23.099453,https://gz.lianjia.com/ershoufang/GZ0002609326.html
世家 四房双主套 高层单位 视野开阔,汇景新城世家,67147,五山,113.379016,23.155086,https://gz.lianjia.com/ershoufang/GZ0003083716.html
银汇华庭 厅出阳台 户型方正 住家装修,银汇华庭银汇大厦,65789,天润路,113.351248,23.149829,https://gz.lianjia.com/ershoufang/GZ0003029879.html
易丰大厦 方正两房 交通便利 购物方便,易丰大厦,63796,天河公园,113.358932,23.134604,https://gz.lianjia.com/ershoufang/GZ0002730249.html
侨林苑 温馨两房 保养好 华阳**,侨林苑一期,80000,天河北,113.336065,23.149909,https://gz.lianjia.com/ershoufang/GZ0002975080.html
电梯三房 保养新 间隔方正,保利百合花园芳园,47549,江燕路,113.282666,23.078949,https://gz.lianjia.com/ershoufang/GZ0002548034.html
信成小区 大型社区，周边配套成熟交通方便,信成小区天河东路,52989,体育中心,113.339142,23.145219,https://gz.lianjia.com/ershoufang/GZ0002618342.html
景泰新村 中层三房 生活便利,景泰新村景泰西三巷,22667,广园路,113.274184,23.16587,https://gz.lianjia.com/ershoufang/GZ0002649459.html
天朗明居 温馨两房 装修保养好,富力天朗明居S区,43681,棠下,113.398136,23.132471,https://gz.lianjia.com/ershoufang/GZ0002788691.html
翡翠绿洲森林半岛 精装两房,翡翠绿洲森林半岛,21622,新塘,113.565886,23.142768,https://gz.lianjia.com/ershoufang/GZ0002862409.html
金田花苑 已加装电梯三房 采光通风好,金田花苑,60683,天河北,113.342589,23.148793,https://gz.lianjia.com/ershoufang/GZ0002867183.html
翡翠绿洲森林半岛 精装两房,翡翠绿洲森林半岛,21622,新塘,113.565886,23.142768,https://gz.lianjia.com/ershoufang/GZ0002862409.html
顺景雅苑 地铁沿线大型花园小区 舒适三房,顺景雅苑顺雅居,43902,新港西,113.29976,23.094159,https://gz.lianjia.com/ershoufang/GZ0002905065.html
聚德花园 高层单位 电梯两房,聚德花园,34101,赤岗,113.338396,23.08985,https://gz.lianjia.com/ershoufang/GZ0002916398.html
珠江新城 易丰大厦 单间带阳台 交通好,易丰大厦,55331,天河公园,113.358932,23.134604,https://gz.lianjia.com/ershoufang/GZ0002928152.html
育蕾小区 大两房 正南向 采光好,育蕾小区黄埔大道西,48896,天河南,113.329475,23.133995,https://gz.lianjia.com/ershoufang/GZ0002943775.html
加拿大花园 电梯两房,加拿大花园,45205,华景新城,113.374508,23.142588,https://gz.lianjia.com/ershoufang/GZ0002993765.html
东南向电梯大两房视野望花园,金桂园云华阁,31635,桂花岗,113.270586,23.159724,https://gz.lianjia.com/ershoufang/GZ0002997823.html
南贤大街 三房一厅 格局方正 通风采光好,大江苑南贤大街,24528,新港西,113.320883,23.105407,https://gz.lianjia.com/ershoufang/GZ0002273768.html
百事佳新村 精致一房一厅 采光通风,百事佳新村B区,20404,广园路,113.271852,23.171001,https://gz.lianjia.com/ershoufang/GZ0002991403.html
富力院士庭 精装2房 望花园景观房,富力院士庭C1区,62558,东莞庄,113.343358,23.15718,https://gz.lianjia.com/ershoufang/GZ0002887913.html
汇景新城旁边 温馨 采光好 户型方正,棠兴街2-6号大院,26506,华景新城,113.380763,23.144929,https://gz.lianjia.com/ershoufang/GZ0002733115.html
南华东路 全明对流两房 有独立天台,南华东路,26610,滨江西,113.273407,23.116783,https://gz.lianjia.com/ershoufang/GZ0002743964.html
赛拉维 南向方正两房 安静望花园,赛拉维,54901,员村,113.363866,23.127922,https://gz.lianjia.com/ershoufang/GZ0002872539.html
天誉花园 两房两厅 通风采光好,天誉花园,68356,天河北,113.332917,23.151935,https://gz.lianjia.com/ershoufang/GZ0002877221.html
半山雍景 温馨三房 户型方正,半山雍景苑,51748,五山,113.370916,23.150409,https://gz.lianjia.com/ershoufang/GZ0002924350.html
实用两房 装修保养好 南向单位,建基路,35065,东晓路,113.292927,23.106101,https://gz.lianjia.com/ershoufang/GZ0002245007.html
怡园小区 南北对流 交通便利,怡园小区,27778,区府,113.458036,23.107971,https://gz.lianjia.com/ershoufang/GZ0002783595.html
丰乐中路 丰乐小区 格局方正 高层采光好,丰乐小区91号大院,23434,区府,113.460621,23.11052,https://gz.lianjia.com/ershoufang/GZ0002923902.html
前进路 基立南街 实用温馨单位 配套完善,前进路基立南街,21852,前进路,113.281249,23.109313,https://gz.lianjia.com/ershoufang/GZ0002763191.html
东华花园 4房2厅2卫 楼梯房 精装修,东华花园,22632,市桥,113.401869,22.950737,https://gz.lianjia.com/ershoufang/GZ0003038275.html
红顶E区 户型方正 东西通透 全明屋,五羊小区E区,47747,五羊新城,113.32072,23.123385,https://gz.lianjia.com/ershoufang/GZ0003022627.html
广梅汕宿舍 温馨三房 住家装修,广梅汕宿舍,56604,龙口西,113.342143,23.141693,https://gz.lianjia.com/ershoufang/GZ0002784966.html
金碧花园 南北通透 中高楼层,金碧花园第一金碧,44304,金碧,113.293993,23.075858,https://gz.lianjia.com/ershoufang/GZ0002895740.html
金碧翡翠华庭 东南向三厅出阳台 产权清晰,金碧翡翠华庭,70594,天润路,113.348564,23.149198,https://gz.lianjia.com/ershoufang/GZ0002921696.html
羊城花园 南北对流 采光通风好,羊城花园趣苑,38272,东圃,113.417172,23.124208,https://gz.lianjia.com/ershoufang/GZ0002983007.html
东莞庄路天一新村 H区 精装3房,天一新村H区,53399,东莞庄,113.342429,23.161029,https://gz.lianjia.com/ershoufang/GZ0002291494.html
万科欧泊 精致三房带主套 南北对流,新光城市花园四期万科欧泊,42105,华南,113.360977,23.017329,https://gz.lianjia.com/ershoufang/GZ0003095821.html
祈福新村海晴居三房 中间好楼层产权清晰,祈福新村海晴居,28205,祈福,113.327926,22.966773,https://gz.lianjia.com/ershoufang/GZ0003103885.html
天誉华庭 名家设计精装三房 厅出阳台,天誉华庭,68482,龙口西,113.34354,23.144709,https://gz.lianjia.com/ershoufang/GZ0002310692.html
盈丰华轩电梯2房 户型方正 保养新,盈丰华轩,43805,江燕路,113.284601,23.079532,https://gz.lianjia.com/ershoufang/GZ0002757748.html
新康花园康馨苑 4房电梯 南向望花园,新康花园康馨苑,16067,新塘,113.597381,23.119718,https://gz.lianjia.com/ershoufang/GZ0002771137.html
华景新城 公安宿舍 精装两房,华景公安宿舍,47280,华景新城,113.3634,23.142168,https://gz.lianjia.com/ershoufang/GZ0002846572.html
黄沙后道 楼梯低层两房 交通方便,黄沙后道,28048,黄沙,113.244028,23.117211,https://gz.lianjia.com/ershoufang/GZ0002858400.html
紫荆小区 实用舒适单位 配套完善,紫荆小区紫荆二街,64007,天河北,113.333583,23.150332,https://gz.lianjia.com/ershoufang/GZ0002962078.html
时代玫瑰园 电梯三房 温馨装修 户型通透,时代玫瑰园,36824,白云大道北,113.292806,23.230914,https://gz.lianjia.com/ershoufang/GZ0002976969.html
周边配套成熟 中层精装三房 南北通透修改,朝阳西路,22446,大石,113.313198,23.029677,https://gz.lianjia.com/ershoufang/GZ0003006938.html
翡翠绿洲 森林半岛 南北通透 带入户花园,翡翠绿洲森林半岛,20018,新塘,113.565886,23.142768,https://gz.lianjia.com/ershoufang/GZ0002554306.html
富力桃园 舒适两房 中高楼层,富力桃园,37209,罗冲围,113.238036,23.15677,https://gz.lianjia.com/ershoufang/GZ0003098808.html
富力桃园 2室2厅 300万,富力桃园,37037,罗冲围,113.238036,23.15677,https://gz.lianjia.com/ershoufang/GZ0003075959.html
龙熹山 欧式三房 高层景观好 通风佳,汇景新城龙熹山,58382,五山,113.382523,23.154048,https://gz.lianjia.com/ershoufang/GZ0003084022.html
时代玫瑰园 南向保养新净 厅出阳台,时代玫瑰园,41038,白云大道北,113.292806,23.230914,https://gz.lianjia.com/ershoufang/GZ0003080980.html
翡翠绿洲育才阳光苑 顶层复式 一手毛坯,翡翠绿洲育才阳光苑,15239,新塘,113.565132,23.138681,https://gz.lianjia.com/ershoufang/GZ0002185614.html
丰逸尙居 精装大三房 地铁口物业,丰逸尚居,29730,区府,113.474691,23.104665,https://gz.lianjia.com/ershoufang/GZ0002743423.html
温馨实用电梯单位 3房 装修保养好,汇侨新城南区,27184,新市,113.264622,23.203667,https://gz.lianjia.com/ershoufang/GZ0003083410.html
凤凰城 凤盈苑 南向四房 精装修,碧桂园凤凰城凤盈苑,26200,新塘,113.570507,23.133153,https://gz.lianjia.com/ershoufang/GZ0002811286.html
建丰大厦 电梯三房 安静小区 交通便利,建丰大厦,52083,天河南,113.336689,23.13726,https://gz.lianjia.com/ershoufang/GZ0002996966.html
三房带主套 户型方正 南北对流 采光好,雅郡花园熙源,48846,琶洲,113.394315,23.096907,https://gz.lianjia.com/ershoufang/GZ0003012659.html
冶炼厂宿舍 装修保养好 户型方正,冶炼厂宿舍,21008,区府,113.500238,23.094192,https://gz.lianjia.com/ershoufang/GZ0002243645.html
荔香花园实用精致两房带天台花园,荔香花园,25000,区府,113.45077,23.102132,https://gz.lianjia.com/ershoufang/GZ0002616873.html
实用舒适单位 配套完善,金穗大厦,50860,体育中心,113.322559,23.141366,https://gz.lianjia.com/ershoufang/GZ0003077902.html
华景新城华景里 南北对流 安静舒适,华景新城信华花园,63214,华景新城,113.371166,23.146359,https://gz.lianjia.com/ershoufang/GZ0003062606.html
时尚明苑 精装3房 交通便利,时尚明苑,44290,车陂,113.400706,23.131288,https://gz.lianjia.com/ershoufang/GZ0002990621.html
黄埔雅苑 南向三房 电梯中层精装修,黄埔新村黄埔雅苑,38577,区府,113.467182,23.107624,https://gz.lianjia.com/ershoufang/GZ0002721156.html
活力花园大两房 精装修,祈福新村活力花园,29070,祈福,113.334969,22.974651,https://gz.lianjia.com/ershoufang/GZ0002946696.html
富力阳光美居 户型靓两房 装修保养好,富力阳光美居,31946,黄石路,113.266102,23.209151,https://gz.lianjia.com/ershoufang/GZ0002993560.html
时代玫瑰园 温馨南向两房 通风采光好,时代玫瑰园,45000,白云大道北,113.292806,23.230914,https://gz.lianjia.com/ershoufang/GZ0003062384.html
芳满庭园 一房一厅 格局方正,华景新城芳满庭园,72319,华景新城,113.369342,23.147573,https://gz.lianjia.com/ershoufang/GZ0002714774.html
兵站宿舍 成熟配套 交通便利 荔园**,兵站宿舍,27464,区府,113.444336,23.104663,https://gz.lianjia.com/ershoufang/GZ0002748028.html
汇峰苑 东向两房 体育东** 带租约出售,汇峰,81163,珠江新城中,113.336953,23.126379,https://gz.lianjia.com/ershoufang/GZ0002974229.html
金碧世纪花园 高楼层 精装修,金碧世纪花园,37681,区府,113.435542,23.120228,https://gz.lianjia.com/ershoufang/GZ0002975644.html
丽江九如通津 西南向三房 双阳台 电梯,丽江花园九如通津,31776,南浦,113.302336,23.038615,https://gz.lianjia.com/ershoufang/GZ0002981382.html
汇侨新城 厅出阳台,汇侨新城北区,29136,新市,113.26402,23.206519,https://gz.lianjia.com/ershoufang/GZ0003068907.html
犀牛路三房出售,犀牛路,61358,环市东,113.302346,23.1392,https://gz.lianjia.com/ershoufang/GZ0003095074.html
西环大街 三房 户型方正 中层带装修,西丽路西环大街,17534,市桥,113.360498,22.944963,https://gz.lianjia.com/ershoufang/GZ0003095835.html
翡翠绿洲 精装两房 望花园 安静舒适,翡翠绿洲森林半岛,22727,新塘,113.565886,23.142768,https://gz.lianjia.com/ershoufang/GZ0002721124.html
海伦堡御院 楼梯低层 靓装修,番禺海伦堡御院,27723,沙湾,113.367434,22.933183,https://gz.lianjia.com/ershoufang/GZ0002761853.html
合生颐景华苑。东晓南近地铁,合生颐景华苑颐韵轩,42857,金碧,113.303101,23.076863,https://gz.lianjia.com/ershoufang/GZ0002743559.html
山河后街 大院管理 方正实用 中低楼层,山河后街61号大院,66875,东山口,113.305922,23.124922,https://gz.lianjia.com/ershoufang/GZ0003052939.html
紫薇苑 两房一厅 格局方正,紫薇苑,21455,同德围,113.248647,23.185745,https://gz.lianjia.com/ershoufang/GZ0003094957.html
西兴苑 配套好 南向两房,西兴苑11幢,13689,市桥,113.364598,22.936659,https://gz.lianjia.com/ershoufang/GZ0003095146.html
一房一厅 格局好 适合居家,景泰新村景泰西八巷,24716,广园路,113.27467,23.170999,https://gz.lianjia.com/ershoufang/GZ0003096078.html
骏景花园 高层东向 精致三房 户型方正,骏景花园北苑骏豪轩,53436,棠下,113.391645,23.129132,https://gz.lianjia.com/ershoufang/GZ0003029967.html
美心翡翠明庭 标准电梯四房 精装,美心翡翠明庭,26525,市桥,113.408042,22.941783,https://gz.lianjia.com/ershoufang/GZ0003097238.html
华景五期 送平台 东向望花园 安静不吵,华景新城福门阁,61909,华景新城,113.366076,23.145463,https://gz.lianjia.com/ershoufang/GZ0003076059.html
锦绣香江  华府二期  高层  采光好,锦绣香江花园山水华府,41758,华南,113.347834,22.998641,https://gz.lianjia.com/ershoufang/GZ0003040836.html
东华东路 独栋别墅 环境安静,东华东路新南街,79125,东湖,113.296193,23.126551,https://gz.lianjia.com/ershoufang/GZ0003041023.html
白云大道南 三房两厅 格局方正,白云大道南,26084,白云大道南,113.282579,23.181186,https://gz.lianjia.com/ershoufang/GZ0003044957.html
祈福新村 绿怡居 一楼两房 带前后露台,祈福新村绿怡居,29982,祈福,113.335358,22.969143,https://gz.lianjia.com/ershoufang/GZ0003095925.html
润寿小区 实用2房 间隔方正,润寿小区林和街,54310,天润路,113.339733,23.149521,https://gz.lianjia.com/ershoufang/GZ0002567045.html
金海花园 实用舒适两房 配套完善,金海花园,60811,龙口西,113.3453,23.146266,https://gz.lianjia.com/ershoufang/GZ0003022736.html
黄沙大道 实用两房 光线充足 通风性好,黄沙大道,20304,黄沙,113.238705,23.121158,https://gz.lianjia.com/ershoufang/GZ0002781618.html
金港花园 证过五年 精致一房,金港花园,41951,区府,113.452903,23.103204,https://gz.lianjia.com/ershoufang/GZ0002829701.html
怡乐路 方正一房 安静舒适 近地铁,怡乐路,25025,新港西,113.295038,23.099877,https://gz.lianjia.com/ershoufang/GZ0002839738.html
北较场路精致3房2厅明屋近地铁,北较场路,32673,小北,113.281775,23.143894,https://gz.lianjia.com/ershoufang/GZ0002198744.html
竹丝村 电梯五房双阳台双卫 舒适带停车位,竹丝村,55255,东山口,113.298757,23.136401,https://gz.lianjia.com/ershoufang/GZ0003055876.html
广州奥林匹克花园 复式4房 南向采光好,广州奥林匹克花园东九街,32061,洛溪,113.315279,23.049148,https://gz.lianjia.com/ershoufang/GZ0002567070.html
华景新城公安宿舍 电梯两房 南北通透,华景公安宿舍,49197,华景新城,113.3634,23.142168,https://gz.lianjia.com/ershoufang/GZ0002985066.html
广州雅居乐花园 新地沁园 精致三房,广州雅居乐花园新地沁园,37657,华南,113.377016,23.014672,https://gz.lianjia.com/ershoufang/GZ0003071416.html
恒宝华庭 间隔方正 安静宜居 望花园平台,恒宝华庭,55147,西关,113.24781,23.123393,https://gz.lianjia.com/ershoufang/GZ0003031152.html
美林海岸花园 西南向望花园  安静通透,美林海岸花园云河轩,64467,员村,113.380396,23.1202,https://gz.lianjia.com/ershoufang/GZ0003030449.html
华南碧桂园 岭御苑 南北对流 望山单位,华南碧桂园岭御苑,32922,华南,113.380279,23.008204,https://gz.lianjia.com/ershoufang/GZ0002990238.html
珠岛花园 精致装修 南向一房,珠岛花园一期,25143,大坦沙,113.229458,23.136179,https://gz.lianjia.com/ershoufang/GZ0003028341.html
天虹花园 交通便利 采光好 带35平平台,天虹花园,27000,区府,113.437455,23.114826,https://gz.lianjia.com/ershoufang/GZ0003034156.html
民航小区 中层两房 精装修,民航小区向云新街,36111,白云大道南,113.275666,23.178213,https://gz.lianjia.com/ershoufang/GZ0003035454.html
云苑新村 格局方正 采光通风好,广园云苑新村云苑三街,19916,广园路,113.276834,23.172529,https://gz.lianjia.com/ershoufang/GZ0003063673.html
瑞康大厦 格局方正 采光好,瑞康大厦,19000,新港西,113.303411,23.093513,https://gz.lianjia.com/ershoufang/GZ0003064271.html
金泽大厦 东南向2房 高楼层无遮挡。,金泽大厦,47068,天河南,113.335093,23.133339,https://gz.lianjia.com/ershoufang/GZ0003069893.html
实用温馨三房单位 双阳台  配套完善,江南大道南水厂宿舍,39390,昌岗,113.284164,23.093022,https://gz.lianjia.com/ershoufang/GZ0003071122.html
子岭 长安厚街 三房两厅 高层南向,景松苑,19792,大金钟,113.280849,23.173539,https://gz.lianjia.com/ershoufang/GZ0003073456.html
汇侨新城 东南向 实用三房 干净舒适,汇侨新城南区,28101,新市,113.264622,23.203667,https://gz.lianjia.com/ershoufang/GZ0003095676.html
石牌西天晟明苑精装两房 交通便利 配套齐,天晟明苑,45726,石牌,113.344922,23.134369,https://gz.lianjia.com/ershoufang/GZ0003043935.html
瑞安创逸 精装修 厅出阳台 安静舒适,瑞安·创逸,81720,龙口东,113.346934,23.146529,https://gz.lianjia.com/ershoufang/GZ0003045828.html
天朗明居 温馨南向两房 户型方正,富力天朗明居S区,46828,棠下,113.398136,23.132471,https://gz.lianjia.com/ershoufang/GZ0002810324.html
新世界东逸花园 南北向3房 方正实用,新世界东逸花园,61337,天河公园,113.366409,23.134098,https://gz.lianjia.com/ershoufang/GZ0003071061.html
保利林语山庄 精装三房 大户型,保利林语山庄6区,33237,科学城,113.460551,23.188171,https://gz.lianjia.com/ershoufang/GZ0003095970.html
西门口广场 电梯两房 空中花园,西门口广场,58000,西华路,113.259742,23.133441,https://gz.lianjia.com/ershoufang/GZ0003103999.html
实用温馨单位 配套设施方便,下塘西路,34149,麓景,113.2808,23.151624,https://gz.lianjia.com/ershoufang/GZ0003107665.html
琶洲磨碟砂地铁 邦泰国际 70年产权,邦泰国际公寓,44080,琶洲,113.345826,23.104576,https://gz.lianjia.com/ershoufang/GZ0002899223.html
黄华路 方正两房 住家装修,黄华路中约外街,42857,建设路,113.2846,23.140555,https://gz.lianjia.com/ershoufang/GZ0003108725.html
东莞庄 广工教师村 南向三房 小区安静,广东工业大学五山教师村,54762,东莞庄,113.343835,23.156162,https://gz.lianjia.com/ershoufang/GZ0002606390.html
晓港湾 户型方正 实用舒适一房,晓港湾明华苑,29577,金碧,113.30069,23.075054,https://gz.lianjia.com/ershoufang/GZ0003041276.html
黄埔花园 格局方正，使用率高,黄埔花园,40000,区府,113.462888,23.104905,https://gz.lianjia.com/ershoufang/GZ0003080806.html
翠湖山庄 三房两厅 西南向望花园 视野好,翠湖山庄,48598,天河公园,113.359064,23.132577,https://gz.lianjia.com/ershoufang/GZ0002740689.html
金碧世纪花园  实用三房 采光通风,金碧世纪花园,40104,区府,113.435542,23.120228,https://gz.lianjia.com/ershoufang/GZ0002813519.html
富力御龙庭 精致大两房,富力御龙庭,68288,淘金,113.302276,23.148883,https://gz.lianjia.com/ershoufang/GZ0002916367.html
富豪山庄 联排五房别墅,富豪山庄第五街,26355,祈福,113.356625,22.975744,https://gz.lianjia.com/ershoufang/GZ0002944079.html
罗马家园 温馨实用三房 格局方正,罗马家园凯旋庭,37382,南洲,113.327584,23.067175,https://gz.lianjia.com/ershoufang/GZ0002973958.html
协和新世界 精致温馨两房 采光装修保养好,协和新世界,71579,天河北,113.344584,23.147957,https://gz.lianjia.com/ershoufang/GZ0003020845.html
云山居 实用三房 景观好 通风采光好,云山居,23592,白云大道北,113.303415,23.218302,https://gz.lianjia.com/ershoufang/GZ0002905800.html
惠苑楼 稀有房型 对流 超低价,惠苑楼,27647,车陂,113.40375,23.131963,https://gz.lianjia.com/ershoufang/GZ0002391844.html
南国花园，方正实用三房，不超**。,南国花园D区,72961,珠江新城东,113.350512,23.121323,https://gz.lianjia.com/ershoufang/GZ0002449959.html
荟雅苑 3室2厅 670万,荟雅苑,63810,天河北,113.333166,23.148453,https://gz.lianjia.com/ershoufang/GZ0002642027.html
三元里大道 合益小区 实用两房 全新装修,合益小区合益街,15338,机场路,113.255549,23.181411,https://gz.lianjia.com/ershoufang/GZ0002661933.html
保利中辰 精装两房 南北对流,保利中辰广场,80745,龙口西,113.343168,23.140892,https://gz.lianjia.com/ershoufang/GZ0002765976.html
华景新城 三房两卫 看房方便,华景新城芳满庭园,56701,华景新城,113.369342,23.147573,https://gz.lianjia.com/ershoufang/GZ0002286468.html
翡翠绿洲 南北对流 大三房,翡翠绿洲森林半岛,23588,新塘,113.565886,23.142768,https://gz.lianjia.com/ershoufang/GZ0003050827.html
云苑新村 低层两房 交通方便,广园云苑新村云苑三街,22321,广园路,113.276834,23.172529,https://gz.lianjia.com/ershoufang/GZ0003106076.html
员村新岗栏 四房两厅 新装电梯,黄埔大道中,42037,石牌,113.35339,23.13201,https://gz.lianjia.com/ershoufang/GZ0003028019.html
雅湖居别墅 南北对流 保养好 带前后花园,广州雅居乐花园雅湖居,54140,华南,113.378281,23.011967,https://gz.lianjia.com/ershoufang/GZ0003029515.html
东湖映月 高层望花园小三房,东湖映月,29059,白云大道北,113.328487,23.280693,https://gz.lianjia.com/ershoufang/GZ0003027354.html
标准两房 户型实用 地铁口 配套成熟,广信华景大厦,49595,五羊新城,113.320904,23.126175,https://gz.lianjia.com/ershoufang/GZ0002762848.html
江南西地铁D口 靓装三房 中层五楼 抵买,江南大道中江南大道中后街,36598,江南大道,113.279156,23.103937,https://gz.lianjia.com/ershoufang/GZ0002805312.html
万科城市花园 东南向大三房 地铁口物业,万科城市花园,36842,区府,113.475207,23.111503,https://gz.lianjia.com/ershoufang/GZ0002811942.html
精选四房 南向望花园 实用性高,逸景翠园映月居,44037,广州大道南,113.315586,23.090444,https://gz.lianjia.com/ershoufang/GZ0002827906.html
机场路腾龙阁 电梯高层三房 采光通风好,腾龙阁,30090,机场路,113.2658,23.177546,https://gz.lianjia.com/ershoufang/GZ0002521541.html
隽泷湾 园林景色 紧凑三房,路劲隽泷湾,36957,龙溪,113.218799,23.083671,https://gz.lianjia.com/ershoufang/GZ0003076291.html
广州亚运城 运动员村少有大2房 一梯两户,亚运城运动员村二区,22775,亚运城,113.489899,22.954772,https://gz.lianjia.com/ershoufang/GZ0002767316.html
广园新村 景泰新村 中层两房 南向采光,景泰新村景泰西二巷,27003,广园路,113.2745,23.166888,https://gz.lianjia.com/ershoufang/GZ0003095829.html
机场路 康盈阁 可以办公 可以居住,康盈阁,21598,机场路,113.264898,23.17983,https://gz.lianjia.com/ershoufang/GZ0002809166.html
榕景园两房单位精致南向两房,榕景园,34118,区府,113.470318,23.103709,https://gz.lianjia.com/ershoufang/GZ0002977000.html
环市中路 采光通透 格局方正 新装修,环市中路,46809,小北,113.283638,23.145635,https://gz.lianjia.com/ershoufang/GZ0002983879.html
花园小区 实用两房,新港东路,27153,琶洲,113.395622,23.103733,https://gz.lianjia.com/ershoufang/GZ0002455409.html
翠湖山庄 三房两厅 户型方正 交通方便,翠湖山庄,46701,天河公园,113.359064,23.132577,https://gz.lianjia.com/ershoufang/GZ0002740675.html
翠湖山庄 方正三房 安静户型,翠湖山庄,48598,天河公园,113.359064,23.132577,https://gz.lianjia.com/ershoufang/GZ0002829846.html
泽晖苑 三房改两房 适合居家改善,华景新城泽晖苑,61261,华景新城,113.366338,23.144938,https://gz.lianjia.com/ershoufang/GZ0002849250.html
祈福新村蝶舞轩 温馨两房,祈福新村蝶舞轩,27663,祈福,113.331868,22.966318,https://gz.lianjia.com/ershoufang/GZ0002931159.html
金雅苑 南向精装修 厅出阳台 现改成两房,金雅苑,59615,滨江东,113.300504,23.108723,https://gz.lianjia.com/ershoufang/GZ0002943428.html
晓翠苑 东南向精装两房 交通便利,晓翠苑闲情居,20284,机场路,113.261268,23.187926,https://gz.lianjia.com/ershoufang/GZ0002978500.html
祈福新村 C区 北向两房,祈福新村C区,20313,祈福,113.339631,22.967036,https://gz.lianjia.com/ershoufang/GZ0003063967.html
棕榈园 高层景观房 四房双主套 南北对流,汇景新城棕榈园,75257,五山,113.372504,23.15601,https://gz.lianjia.com/ershoufang/GZ0003110391.html
广州富力城 高层小三房 望花园,广州富力城,29032,黄石路,113.269419,23.252792,https://gz.lianjia.com/ershoufang/GZ0003027886.html
外语外贸大学 精装两居室 安静南向,外语外贸学院,50222,白云大道北,113.303115,23.204341,https://gz.lianjia.com/ershoufang/GZ0003063448.html
祈福水城 电梯中层 精装实用两房,祈福水城,23077,沙湾,113.36063,22.915239,https://gz.lianjia.com/ershoufang/GZ0003073689.html
丰逸尚居 实用一房 地铁五号线交通便利,丰逸尚居,34311,区府,113.474691,23.104665,https://gz.lianjia.com/ershoufang/GZ0003080985.html
大石富庭华园精装3房 中高楼层看房方便,富庭华园1街,26395,大石,113.320745,23.0284,https://gz.lianjia.com/ershoufang/GZ0002753880.html
海伦堡 实用三房 保养好,番禺海伦堡海鸣居,24565,沙湾,113.370484,22.93218,https://gz.lianjia.com/ershoufang/GZ0002761437.html
麓景路 实用两房两厅,麓景路上塘街,30414,麓景,113.284339,23.150092,https://gz.lianjia.com/ershoufang/GZ0003036439.html
翡翠绿洲 精装小三房 望花园 满两年,翡翠绿洲森林半岛,22384,新塘,113.565886,23.142768,https://gz.lianjia.com/ershoufang/GZ0003083845.html
小北麓景东大院 低层一房 大平台少有放盘,麓景东路,42745,麓景,113.285767,23.149997,https://gz.lianjia.com/ershoufang/GZ0003107679.html
岭南新世界 北向中高层三房 近地铁,岭南新世界,42157,白云大道北,113.298809,23.240432,https://gz.lianjia.com/ershoufang/GZ0002740048.html
穗园小区实用两房 格局方正 安静,穗园小区,59002,天润路,113.3463,23.151544,https://gz.lianjia.com/ershoufang/GZ0002754499.html
春江花园 实用三房 带平台 户型方正,春江花园,33947,棠下,113.396756,23.134415,https://gz.lianjia.com/ershoufang/GZ0002931366.html
富力阳光美居 户型靓三房 装修保养好,富力阳光美居,35001,黄石路,113.266102,23.209151,https://gz.lianjia.com/ershoufang/GZ0003046848.html
又一居 电梯3房 望园 省级教育配套,东方花园又一居,30120,市桥,113.384648,22.938537,https://gz.lianjia.com/ershoufang/GZ0003032412.html
翠湖山庄 两房一厅 交通方便 安静东南向,翠湖山庄,54795,天河公园,113.359064,23.132577,https://gz.lianjia.com/ershoufang/GZ0002620034.html
耀星华庭 华阳3房 装修漂亮 华阳本部,耀星华庭,68800,天河北,113.338374,23.149792,https://gz.lianjia.com/ershoufang/GZ0002864447.html
万科云山 三房带主套 精装修 高层通风好,万科云山花园,35938,白云大道北,113.318798,23.251207,https://gz.lianjia.com/ershoufang/GZ0002868608.html
江南新苑 南向两房 园林单位,江南新苑,53626,新港西,113.294946,23.098576,https://gz.lianjia.com/ershoufang/GZ0002883753.html
诺德名都 精致三房 毛坯任意装 中高层朝,自在城市花园三期诺德名都,30303,华南,113.351946,22.995141,https://gz.lianjia.com/ershoufang/GZ0002266875.html
康裕园精装三房 地铁1.5公里 省级**,康裕园一街,20840,市桥,113.36054,22.9483,https://gz.lianjia.com/ershoufang/GZ0002600257.html
双子星城 时尚复式单位 居家办公均可,双子星城星汇轩,42105,新港西,113.305765,23.095427,https://gz.lianjia.com/ershoufang/GZ0002601238.html
靓装盛翠复式 保养靓 南向采光好,富豪山庄盛翠华庭,32856,祈福,113.35883,22.978388,https://gz.lianjia.com/ershoufang/GZ0003041569.html
富力桃园 东南向三房 通风采光好,富力桃园,38210,罗冲围,113.238036,23.15677,https://gz.lianjia.com/ershoufang/GZ0003050868.html
康乃馨 到地铁200米 矮层正南向2房,康乃馨苑,33103,坑口,113.238728,23.086798,https://gz.lianjia.com/ershoufang/GZ0003051377.html
金田花苑三期 精装四房 景观房,金田花苑,64919,天河北,113.342589,23.148793,https://gz.lianjia.com/ershoufang/GZ0003058709.html
凤凰城凤馨苑 精装三房 采光好 视野广阔,碧桂园凤凰城凤馨苑,24528,新塘,113.606996,23.147009,https://gz.lianjia.com/ershoufang/GZ0003065429.html
凤凰城凤馨苑 经典三房 带家私家电,碧桂园凤凰城凤馨苑,27083,新塘,113.606996,23.147009,https://gz.lianjia.com/ershoufang/GZ0003030213.html
金燕花园 电梯南向三房 户型方正实用,金燕花园燕景楼,45076,粤垦,113.336155,23.164069,https://gz.lianjia.com/ershoufang/GZ0002692272.html
一德花园 望江五房 全新装修 旧部前**,一德花园,36302,解放南,113.268005,23.120731,https://gz.lianjia.com/ershoufang/GZ0002900298.html
金色港湾 中层三房 南北对流,金色港湾,15493,新塘,113.617894,23.120946,https://gz.lianjia.com/ershoufang/GZ0002943467.html
诺德名都 大3房 精装修 南向高楼层,自在城市花园三期诺德名都,33333,华南,113.351946,22.995141,https://gz.lianjia.com/ershoufang/GZ0002236251.html
祥辉广场 中装中层 电梯三房,祥辉广场,20000,区府,113.486696,23.099453,https://gz.lianjia.com/ershoufang/GZ0002236708.html
绿茵庭园 电梯花园,绿茵庭园,28070,市桥,113.367709,22.955305,https://gz.lianjia.com/ershoufang/GZ0002242474.html
属于中型社区，环境优美 ，出入方便,富景花园,40882,新港西,113.296544,23.09768,https://gz.lianjia.com/ershoufang/GZ0002546704.html
东怡新区，大三房出售,东怡新区东倩园,22371,市桥,113.397895,22.939117,https://gz.lianjia.com/ershoufang/GZ0002963973.html
万科柏悦湾 精装三房二厅 南向望江,万科柏悦湾,44681,大坦沙,113.230376,23.124174,https://gz.lianjia.com/ershoufang/GZ0003006771.html
黄埔花园 北向两房 格局方正,黄埔花园,45249,区府,113.462888,23.104905,https://gz.lianjia.com/ershoufang/GZ0003009996.html
珠江新岸公寓 精装修 朝向好,珠江新岸公寓,45987,滨江东,113.321362,23.109582,https://gz.lianjia.com/ershoufang/GZ0002279866.html
保利百合花园 大宅顶层复式大宅单位,保利百合花园芳园,44633,江燕路,113.282666,23.078949,https://gz.lianjia.com/ershoufang/GZ0002285703.html
金碧花园一期 实用温馨单位 配套完善,金碧花园第一金碧,38971,金碧,113.293993,23.075858,https://gz.lianjia.com/ershoufang/GZ0003041546.html
文昌南路 荔尚国际 实用两房,荔尚国际,45280,西关,113.250311,23.122786,https://gz.lianjia.com/ershoufang/GZ0003053811.html
中科院四房出售,先烈中路81号大院,42870,黄花岗,113.306277,23.149352,https://gz.lianjia.com/ershoufang/GZ0003032605.html
丰逸尚居 精装南向一房 文冲地铁口,丰逸尚居,37068,区府,113.474691,23.104665,https://gz.lianjia.com/ershoufang/GZ0003051350.html
朗陶居 园内三房 楼层位置好,朗陶居,22471,沙湾,113.372859,22.924057,https://gz.lianjia.com/ershoufang/GZ0003029974.html
美林海岸花园碧水轩 2室1厅 480万,美林海岸花园碧水轩,58824,员村,113.37943,23.119082,https://gz.lianjia.com/ershoufang/GZ0002942507.html
松柏新村 格局好 大院管理,松柏新村松柏东街,19077,广园路,113.273055,23.168903,https://gz.lianjia.com/ershoufang/GZ0003095154.html
松柏新村  采光通透 格局方正,松柏新村松柏东街,19092,广园路,113.273055,23.168903,https://gz.lianjia.com/ershoufang/GZ0003095179.html
泓景花园 高层南北对流 大阳台 新装修,泓景花园,61959,赤岗,113.335085,23.104655,https://gz.lianjia.com/ershoufang/GZ0002780685.html
淘金路小区 格局方正两房出售,淘金路,48405,淘金,113.294135,23.145406,https://gz.lianjia.com/ershoufang/GZ0003076316.html
金碧世纪花园，高层两房，望花园,金碧世纪花园,38905,区府,113.435542,23.120228,https://gz.lianjia.com/ershoufang/GZ0003082202.html
珠江新城 星汇国际大厦 少有特色两房售,星汇国际大厦,61856,珠江新城西,113.323245,23.129264,https://gz.lianjia.com/ershoufang/GZ0002741767.html
翡翠绿洲 森林半岛 精装两房,翡翠绿洲森林半岛,21505,新塘,113.565886,23.142768,https://gz.lianjia.com/ershoufang/GZ0002747828.html
云桂苑 大面积低楼层送平台,云景花园云桂苑,41717,同和,113.335732,23.190305,https://gz.lianjia.com/ershoufang/GZ0002819483.html
广和一街 新装修 通风采光好 温馨两房,广和路广和一街,60650,天河南,113.324184,23.138644,https://gz.lianjia.com/ershoufang/GZ0002859660.html
香缤豪庭电梯三房，看房方便,香缤豪庭,35313,沙湾,113.358133,22.926811,https://gz.lianjia.com/ershoufang/GZ0002994847.html
晓园新村 2房 出售,晓园新村晓园新,30986,昌岗,113.287625,23.092596,https://gz.lianjia.com/ershoufang/GZ0003044924.html
东怡新区 中间楼层 正南向房源,东怡新区东倩园,23529,市桥,113.397895,22.939117,https://gz.lianjia.com/ershoufang/GZ0003045663.html
白云明珠广场 电梯1房 可改两房,机场路华明街白云明珠广场,31012,机场路,113.265292,23.187554,https://gz.lianjia.com/ershoufang/GZ0003045910.html
金碧新城2室精装修,金碧新城,33333,石井,113.249526,23.209834,https://gz.lianjia.com/ershoufang/GZ0003050362.html
翡翠绿洲湖翠苑 电梯三房两厅 保养新,翡翠绿洲湖翠苑,22731,新塘,113.559913,23.141319,https://gz.lianjia.com/ershoufang/GZ0003050388.html
燕都路 鸿燕居 精装大2房 中层景观房,鸿燕居,36184,粤垦,113.335346,23.165162,https://gz.lianjia.com/ershoufang/GZ0003050908.html
丽江花园 德字楼 双阳台,丽江花园德汇楼,27703,南浦,113.306324,23.041155,https://gz.lianjia.com/ershoufang/GZ0003051196.html
地铁西村站 带装修 温馨两房,西湾路西湾东二街,29940,西村,113.249503,23.147076,https://gz.lianjia.com/ershoufang/GZ0003053896.html
听涛雅苑 东南靓向 方正两房,听涛雅苑,40410,滨江东,113.313709,23.107897,https://gz.lianjia.com/ershoufang/GZ0003065194.html
嘉馨阁 精装修方正三房 大阳台,嘉仕花园,44248,滨江东,113.30178,23.108794,https://gz.lianjia.com/ershoufang/GZ0003073191.html
湖景居 实用三房,祈福新村湖景居,26250,祈福,113.334829,22.96408,https://gz.lianjia.com/ershoufang/GZ0003074693.html
云桂苑 大面积低楼层送平台,云景花园云桂苑,41717,同和,113.335732,23.190305,https://gz.lianjia.com/ershoufang/GZ0002819483.html
美好居 实用2房 采光通透 保养漂亮,美好居,44025,车陂,113.400238,23.131445,https://gz.lianjia.com/ershoufang/GZ0002902311.html
远洋明珠大厦 高层三房 东南向,远洋明珠大厦,74576,珠江新城西,113.323302,23.123999,https://gz.lianjia.com/ershoufang/GZ0002278147.html
西城路 精装3房,西城路8街,15836,市桥,113.362933,22.937591,https://gz.lianjia.com/ershoufang/GZ0003025211.html
翠城花园 好装修中空复式单位 东南靓向,翠城花园,57522,江燕路,113.275994,23.089727,https://gz.lianjia.com/ershoufang/GZ0002402807.html
南国奥园顶楼大复式强势出售保养良好双地铁,南国奥林匹克花园北奥一路,25157,华南,113.331763,22.991785,https://gz.lianjia.com/ershoufang/GZ0002584863.html
中兴花园，采光好，新装修，格局方正,中兴花园,49123,东圃,113.42528,23.122195,https://gz.lianjia.com/ershoufang/GZ0002606224.html
位置适中 标准三房 安静看花园,中海康城梧桐街,50451,黄村,113.408908,23.141848,https://gz.lianjia.com/ershoufang/GZ0003070041.html
黄埔雅苑 方正两房  交通方便,黄埔新村黄埔雅苑,33008,区府,113.467182,23.107624,https://gz.lianjia.com/ershoufang/GZ0002852153.html
金碧世纪花园 保养好 实用两房 装修保养,金碧世纪花园,36406,区府,113.435542,23.120228,https://gz.lianjia.com/ershoufang/GZ0002876539.html
骏景花园 北苑三期正规三房 带平台,骏景花园北苑骏晖轩,46500,棠下,113.390747,23.129593,https://gz.lianjia.com/ershoufang/GZ0002902315.html
怡港花园 电梯大三房 装修保养好,怡港花园怡康楼,39321,区府,113.459103,23.105693,https://gz.lianjia.com/ershoufang/GZ0002926635.html
愉景南苑 望花园安静舒适南向三房带主套,愉景南苑诗韵轩,53941,新港西,113.319958,23.102274,https://gz.lianjia.com/ershoufang/GZ0002934952.html
华侨乐园 北向望花园 中星小,华侨乐园,52952,淘金,113.29716,23.149294,https://gz.lianjia.com/ershoufang/GZ0002953356.html
金碧花园 森林广场 大三房带主套 地铁口,金碧花园第一金碧,41794,金碧,113.293993,23.075858,https://gz.lianjia.com/ershoufang/GZ0002978468.html
宝华路 电梯中层实用2房双阳台单位出售,宝华路十五甫正街,42918,西关,113.247516,23.121409,https://gz.lianjia.com/ershoufang/GZ0002984611.html
半山雍景 安静采光好 业主诚意放卖,半山雍景苑,51308,五山,113.370916,23.150409,https://gz.lianjia.com/ershoufang/GZ0003017846.html
铂林国际 大单间 配套完善 交通方便,铂林国际公寓,87273,珠江新城西,113.323133,23.12503,https://gz.lianjia.com/ershoufang/GZ0002393577.html
翠城花园 好装修中空复式单位 东南靓向,翠城花园,57522,江燕路,113.275994,23.089727,https://gz.lianjia.com/ershoufang/GZ0002402807.html
逸翠湾 高层精装四房 南北对流 一线望江,逸翠湾,55216,黄沙,113.245922,23.115846,https://gz.lianjia.com/ershoufang/GZ0002580968.html
中兴花园，采光好，新装修，格局方正,中兴花园,49123,东圃,113.42528,23.122195,https://gz.lianjia.com/ershoufang/GZ0002606224.html
盈翠华庭 复式单位靠白云山 附带天台花园,盈翠华庭翠逸居,39548,广园路,113.278411,23.175373,https://gz.lianjia.com/ershoufang/GZ0002302664.html
广州雅居乐花园 御景峰,广州雅居乐花园御景峰,48688,华南,113.369603,23.018087,https://gz.lianjia.com/ershoufang/GZ0002315041.html
富力千禧 实用三房,富力千禧花园,58889,新港西,113.291726,23.102415,https://gz.lianjia.com/ershoufang/GZ0002939882.html
祥泰楼 楼梯低层 配套成熟 间隔实用,祥泰楼,18132,芳村大道,113.228397,23.111937,https://gz.lianjia.com/ershoufang/GZ0003069851.html
祥泰楼 楼梯低层 配套成熟 间隔实用,祥泰楼,18132,芳村大道,113.228397,23.111937,https://gz.lianjia.com/ershoufang/GZ0003069857.html
雅居乐花园 装修新净,广州雅居乐花园雅逸庭,33200,华南,113.371149,23.013447,https://gz.lianjia.com/ershoufang/GZ0003070061.html
远景路 美景苑 精品三房格局 靓装修,美景苑丽景阁,30162,机场路,113.258659,23.178936,https://gz.lianjia.com/ershoufang/GZ0002652639.html
锦绣银湾 南北对流大三房 中层采风好,锦绣银湾,33694,大石,113.333535,23.033813,https://gz.lianjia.com/ershoufang/GZ0002741829.html
万科金域蓝湾 东南向望花园 出行便利,金域蓝湾,40284,金沙洲,113.21707,23.160609,https://gz.lianjia.com/ershoufang/GZ0002742142.html
朱美拉 纯南向三房 中轴线旁的品质小区,朱美拉公寓,82014,珠江新城中,113.335255,23.125138,https://gz.lianjia.com/ershoufang/GZ0002792036.html
骏景花园南苑 中楼层 方正东西好户型,骏景花园南苑骏腾轩,41293,棠下,113.39108,23.127092,https://gz.lianjia.com/ershoufang/GZ0002822189.html
美心翡翠明庭，精装三房，保养新净,美心翡翠明庭,26923,市桥,113.408042,22.941783,https://gz.lianjia.com/ershoufang/GZ0002827125.html
云泉居 中层三房 厅出阳台 小区南向,大金钟横路云泉居,42545,广园路,113.276353,23.175661,https://gz.lianjia.com/ershoufang/GZ0002834837.html
中海金沙湾B区 小三房 中楼层 有钥匙,中海金沙湾,31731,金沙洲,113.214703,23.14561,https://gz.lianjia.com/ershoufang/GZ0002835560.html
中怡城市花园 温馨三房 望花园景观好,中怡城市花园,64844,天河北,113.333368,23.149245,https://gz.lianjia.com/ershoufang/GZ0002851232.html
丽晶华庭 向实用三房 装修好 采光好,丽晶华庭,53691,珠江新城西,113.324748,23.129342,https://gz.lianjia.com/ershoufang/GZ0002862277.html
保利西海岸 江岸花园 保养新 看房方便,保利西海岸英伦堡花园,33333,金沙洲,113.216164,23.176458,https://gz.lianjia.com/ershoufang/GZ0002874317.html
骏景花园南苑 中楼层 方正东西好户型,骏景花园南苑骏腾轩,41293,棠下,113.39108,23.127092,https://gz.lianjia.com/ershoufang/GZ0002822189.html
美心翡翠明庭，精装三房，保养新净,美心翡翠明庭,26923,市桥,113.408042,22.941783,https://gz.lianjia.com/ershoufang/GZ0002827125.html
翠安侬苑 舒适三房带主套 通风采光好,华景新城翠安侬苑,55361,华景新城,113.36738,23.146628,https://gz.lianjia.com/ershoufang/GZ0002851385.html
誉峰园 望珠江公园景观 安静舒适,誉峰,0,珠江新城东,113.345807,23.129087,https://gz.lianjia.com/ershoufang/GZ0002853287.html
丽晶华庭 向实用三房 装修好 采光好,丽晶华庭,53691,珠江新城西,113.324748,23.129342,https://gz.lianjia.com/ershoufang/GZ0002862277.html
保利西海岸 江岸花园 保养新 看房方便,保利西海岸英伦堡花园,33333,金沙洲,113.216164,23.176458,https://gz.lianjia.com/ershoufang/GZ0002874317.html
翠湖居 南向三房两卫 街道宽景观好,祈福新村翠湖居,25747,祈福,113.338873,22.965459,https://gz.lianjia.com/ershoufang/GZ0002882123.html
保利西海岸 园景三房 安静舒适,保利西海岸汇海花园,32990,金沙洲,113.216337,23.178833,https://gz.lianjia.com/ershoufang/GZ0002887977.html
恒大御景半岛 大三房 景观优美,恒大御景半岛,25008,金沙洲,113.212232,23.19083,https://gz.lianjia.com/ershoufang/GZ0002925062.html
丽江花园星海洲 电梯三房 大阳台 视野好,丽江花园星海洲,29570,南浦,113.310094,23.039588,https://gz.lianjia.com/ershoufang/GZ0002932341.html
易富大厦 楼梯高层 精致三房修改房评,易富大厦,11176,市桥,113.374315,22.943308,https://gz.lianjia.com/ershoufang/GZ0002935748.html
海珠半岛花园 一线望江,海珠半岛花园,54622,滨江东,113.301627,23.109824,https://gz.lianjia.com/ershoufang/GZ0002943970.html
东华花园，楼梯楼，温馨三房,东华花园,26561,市桥,113.401869,22.950737,https://gz.lianjia.com/ershoufang/GZ0002944230.html
雅居乐城南源著 电梯三房格局方正 精装修,雅居乐城南源著,32421,沙湾,113.372717,22.915184,https://gz.lianjia.com/ershoufang/GZ0002945030.html
暨南花园 南向 低楼层 暨大校内 安静舒,暨南花园,53662,石牌,113.352113,23.137511,https://gz.lianjia.com/ershoufang/GZ0002959204.html
逸景翠园，低层单位，采光好,逸景翠园御景轩,43033,新港西,113.312253,23.091272,https://gz.lianjia.com/ershoufang/GZ0002970438.html
金碧新城 精装修 格局方正三房,金碧新城,31667,石井,113.249526,23.209834,https://gz.lianjia.com/ershoufang/GZ0002974242.html
保利西海岸 新居未住 高层望江,保利西海岸汇海花园,36517,金沙洲,113.216337,23.178833,https://gz.lianjia.com/ershoufang/GZ0002976627.html
岭南新世界 南向三房带入户花园 户型方正,岭南新世界映翠园,45960,白云大道北,113.299723,23.237053,https://gz.lianjia.com/ershoufang/GZ0002982852.html
恒大御景半岛 成熟小区 配套完善 望江,恒大御景半岛,29527,金沙洲,113.212232,23.19083,https://gz.lianjia.com/ershoufang/GZ0002983113.html
荔港南湾 主套三房 户型方正 简单实用,荔港南湾B区,35232,南岸路,113.236507,23.141222,https://gz.lianjia.com/ershoufang/GZ0002992604.html
保利花园 电梯高层 三房带主套 单边位,保利花园源溪街,46939,工业大道中,113.281502,23.07583,https://gz.lianjia.com/ershoufang/GZ0002996181.html
小康人家 坑口地铁 精装三房 芳村笋盘,小康人家,35043,坑口,113.238962,23.086314,https://gz.lianjia.com/ershoufang/GZ0002997195.html
星河湾星苑5期 高层望花园 保养新净修改,广州星河湾星苑,40206,华南,113.349199,23.030619,https://gz.lianjia.com/ershoufang/GZ0003016788.html
蓝色康园 南向温馨三房 户型方正 望花园,蓝色康园,61003,滨江东,113.309075,23.108736,https://gz.lianjia.com/ershoufang/GZ0002226390.html
荔湾广场 东南朝向 精致装修,荔湾广场,25123,人民路,113.254257,23.123384,https://gz.lianjia.com/ershoufang/GZ0003080200.html
奥园精装修 配套成熟 视野好 高楼层,奥园城市天地,24783,华南,113.339765,23.000979,https://gz.lianjia.com/ershoufang/GZ0002841319.html
金碧领秀国际别墅 怡园东校** 独立花园,金碧领秀国际鸿府二街,39157,区府,113.467333,23.103804,https://gz.lianjia.com/ershoufang/GZ0003030863.html
诺德名都 实用三房,自在城市花园三期诺德名都,32303,华南,113.351946,22.995141,https://gz.lianjia.com/ershoufang/GZ0003038485.html
春晖闲庭 方正3房 装修保养好,春晖闲庭A2栋,30000,南湖,113.316557,23.225653,https://gz.lianjia.com/ershoufang/GZ0003077343.html
东城华庭 精装三房 送家私电器 拎包入住,泰景花园东城华庭,38495,区府,113.460324,23.116645,https://gz.lianjia.com/ershoufang/GZ0003087143.html
三元里大道 合益小区 实用两房 采光通风,合益小区合益街,15877,机场路,113.255549,23.181411,https://gz.lianjia.com/ershoufang/GZ0003024163.html
丽晶华庭 向实用三房 南向 带租约修改房,丽晶华庭,55034,珠江新城西,113.324748,23.129342,https://gz.lianjia.com/ershoufang/GZ0003029644.html
新都盛世名门 复式单元 新楼龄,新都盛世名门宏城汇,24843,新塘,113.605394,23.131785,https://gz.lianjia.com/ershoufang/GZ0002619000.html
锦绣香江山水华府一期 精装修 家私家电齐,锦绣香江花园山水华府,36296,华南,113.347834,22.998641,https://gz.lianjia.com/ershoufang/GZ0002749938.html
协和新世界 南向大三房 采光通风好,协和新世界,83254,天河北,113.344584,23.147957,https://gz.lianjia.com/ershoufang/GZ0002850193.html
泰景花园 精装三房 安静不吵,泰景花园文苑阁,32924,区府,113.461162,23.115412,https://gz.lianjia.com/ershoufang/GZ0002924270.html
德政北路 交通便利 高层四房 采光好,德政北路雅荷塘,33000,农讲所,113.280405,23.134951,https://gz.lianjia.com/ershoufang/GZ0002930792.html
)锦骏华庭 户型方正 保养新净,锦骏华庭,55556,滨江东,113.314185,23.108065,https://gz.lianjia.com/ershoufang/GZ0003069967.html
华南碧桂园 实用两房 景观好,华南碧桂园漾翠苑,41952,华南,113.359468,22.999952,https://gz.lianjia.com/ershoufang/GZ0003076313.html
南北广场 1室1厅 125万,南北广场,29586,宝岗,113.2687,23.107108,https://gz.lianjia.com/ershoufang/GZ0003070971.html
骏景花园北苑骏豪轩 2室2厅 430万,骏景花园北苑骏豪轩,47222,棠下,113.391645,23.129132,https://gz.lianjia.com/ershoufang/GZ0003095573.html
龙光峰景华庭 户型方正三房 中楼层,龙光峰景华庭,26404,科学城,113.456464,23.194766,https://gz.lianjia.com/ershoufang/GZ0002551984.html
嘉诚国际公寓 间格方正 采光通风好,嘉诚国际公寓,48645,水荫,113.320855,23.14414,https://gz.lianjia.com/ershoufang/GZ0002590914.html
云山诗意 小区环境优美，户型精湛,番禺云山诗意,28319,市桥,113.397602,22.953948,https://gz.lianjia.com/ershoufang/GZ0002331160.html
老西关双地铁实用三房,骏业阁,43077,西关,113.25121,23.121744,https://gz.lianjia.com/ershoufang/GZ0003024268.html
旭景家园 温馨3房 南北对流,旭景家园A区,40364,东圃,113.40837,23.134231,https://gz.lianjia.com/ershoufang/GZ0002651990.html
逸景翠园 采光好 四房大户 正南向,逸景翠园御豪轩,45899,广州大道南,113.313337,23.090395,https://gz.lianjia.com/ershoufang/GZ0002727395.html
旭景家园 装修保养好 安静望花园 阳台南,旭景家园A区,34367,东圃,113.40837,23.134231,https://gz.lianjia.com/ershoufang/GZ0002728182.html
丽康居 大三房 房大厅大,丽康居,24500,同德围,113.249915,23.188981,https://gz.lianjia.com/ershoufang/GZ0002755050.html
祥南横三巷 大院管理,瑞康路迎祥南,15909,新港西,113.30099,23.090565,https://gz.lianjia.com/ershoufang/GZ0002788988.html
尚东尚筑 南向大三房 精装修,尚东尚筑,29032,市桥,113.413562,22.943748,https://gz.lianjia.com/ershoufang/GZ0002809563.html
新世界东逸花园 安静望花园 中楼层采光好,新世界东逸花园,67898,天河公园,113.366409,23.134098,https://gz.lianjia.com/ershoufang/GZ0002941499.html
富力半岛 实用大三房,富力半岛花园,30577,罗冲围,113.235918,23.147373,https://gz.lianjia.com/ershoufang/GZ0002942328.html
恒康阁 东站旁 方正实用 老华阳,恒康阁,42810,天河北,113.329607,23.151853,https://gz.lianjia.com/ershoufang/GZ0002984407.html
南园居 交通便利 配套成熟 空气清新,南园居G栋,37349,琶洲,113.377013,23.10179,https://gz.lianjia.com/ershoufang/GZ0003005551.html
高雅湾 交通便利 配套完善 户型方正,高雅湾,64865,滨江东,113.304861,23.108794,https://gz.lianjia.com/ershoufang/GZ0002257132.html
龙光峰景华庭 户型方正三房 中楼层,龙光峰景华庭,26404,科学城,113.456464,23.194766,https://gz.lianjia.com/ershoufang/GZ0002551984.html
嘉诚国际公寓 间格方正 采光通风好,嘉诚国际公寓,48645,水荫,113.320855,23.14414,https://gz.lianjia.com/ershoufang/GZ0002590914.html
南北广场 1室1厅 125万,南北广场,29586,宝岗,113.2687,23.107108,https://gz.lianjia.com/ershoufang/GZ0003070971.html
老西关双地铁实用三房,骏业阁,43077,西关,113.25121,23.121744,https://gz.lianjia.com/ershoufang/GZ0003024268.html
凤凰城凤馨苑 南向三房 成熟小区,碧桂园凤凰城凤馨苑,24633,新塘,113.606996,23.147009,https://gz.lianjia.com/ershoufang/GZ0003046856.html
翡翠绿洲 湖翠苑 望别墅四房,翡翠绿洲湖翠苑,23577,新塘,113.559913,23.141319,https://gz.lianjia.com/ershoufang/GZ0003056335.html
白云明珠广场 新精装修 方正望白云山两房,机场路华明街白云明珠广场,33176,机场路,113.265292,23.187554,https://gz.lianjia.com/ershoufang/GZ0003082592.html
天力居 温馨两房 格局方正,天力居,42105,东圃,113.409511,23.123006,https://gz.lianjia.com/ershoufang/GZ0002429119.html
黄埔花园 精装两房,黄埔花园,39652,区府,113.462888,23.104905,https://gz.lianjia.com/ershoufang/GZ0002610690.html
二期方正大两房 证过两年 少有货,东方新世界,69375,天河公园,113.366265,23.138473,https://gz.lianjia.com/ershoufang/GZ0002305654.html
旭景家园 精装南向大三房 光线好,旭景家园B区,38426,东圃,113.409842,23.13363,https://gz.lianjia.com/ershoufang/GZ0002741596.html
汇侨新城南区 电梯中层温馨4房 拎包入住,汇侨新城南区,28037,新市,113.264622,23.203667,https://gz.lianjia.com/ershoufang/GZ0002839119.html
城南源著 精装三房 带租出售,雅居乐城南源著,28290,沙湾,113.372717,22.915184,https://gz.lianjia.com/ershoufang/GZ0002853868.html
天虹花园 南向3房 装修保养好 户型方正,天虹花园阳光雅筑,27500,区府,113.437374,23.115986,https://gz.lianjia.com/ershoufang/GZ0002868092.html
理想青年荟 复式1房 方正实用,理想青年荟,80952,天河公园,113.365741,23.135116,https://gz.lianjia.com/ershoufang/GZ0002918098.html
市桥 环城东路 三房出售,东环广场,11838,市桥,113.377488,22.941691,https://gz.lianjia.com/ershoufang/GZ0002942068.html
凤馨苑 对流户型 高楼层三房,碧桂园凤凰城凤馨苑,23953,新塘,113.606996,23.147009,https://gz.lianjia.com/ershoufang/GZ0002980250.html
天朗明居 精装两房 温馨舒适,富力天朗明居S区,49061,棠下,113.398136,23.132471,https://gz.lianjia.com/ershoufang/GZ0002986985.html
翠馨华庭 温馨三房 精装修 保养好,翠馨华庭,45189,广州大道南,113.321967,23.090398,https://gz.lianjia.com/ershoufang/GZ0002990850.html
春晖苑电梯三房，格局方正,春晖苑,40000,东莞庄,113.34088,23.157507,https://gz.lianjia.com/ershoufang/GZ0003020949.html
客村珠影大院 中低层两房 南北通透,珠影大院,40000,赤岗,113.326874,23.099083,https://gz.lianjia.com/ershoufang/GZ0002992828.html
云苑新村 中层一房 旺中带静 采光通风,广园云苑新村云苑一街,24287,广园路,113.2762,23.170846,https://gz.lianjia.com/ershoufang/GZ0002989974.html
华港花园 方正三房 户型实用 读名校,华港花园华港西街,61769,天河公园,113.364056,23.138741,https://gz.lianjia.com/ershoufang/GZ0003035948.html
棕榈园 精装三房 安静采光好,汇景新城棕榈园,57669,五山,113.372504,23.15601,https://gz.lianjia.com/ershoufang/GZ0002460693.html
盈翠华庭 间隔三房 复式楼,盈翠华庭翠逸居,47500,广园路,113.278411,23.175373,https://gz.lianjia.com/ershoufang/GZ0002612091.html
厅出阳台 证够五年 免重税,保利百合花园绿园,46603,江燕路,113.284,23.079705,https://gz.lianjia.com/ershoufang/GZ0002642009.html
新安苑  地铁物业 赠20平方空中花园,新安苑68号,20667,区府,113.466093,23.110734,https://gz.lianjia.com/ershoufang/GZ0002642832.html
丽江花园丽岛翠苑 大四房 南北对流,丽江花园丽岛翠苑,34074,南浦,113.305295,23.039883,https://gz.lianjia.com/ershoufang/GZ0002645643.html
美林海岸花园 高层实用两房  西南望江,美林海岸花园逸江湾,62980,员村,113.380274,23.118479,https://gz.lianjia.com/ershoufang/GZ0002715127.html
加怡大厦 电梯三房 南向 交通便利,加怡大厦,31522,芳村大道,113.248067,23.099944,https://gz.lianjia.com/ershoufang/GZ0002725345.html
东华花园  南向复式单位  装修保养好,东华花园,17815,市桥,113.401869,22.950737,https://gz.lianjia.com/ershoufang/GZ0002756406.html
华景新城 信华花园 安静三房 带主套,华景新城信华花园,60550,华景新城,113.371166,23.146359,https://gz.lianjia.com/ershoufang/GZ0002775292.html
汇雅花园 实用小三房 舒适安静,汇雅花园,14742,白云大道北,113.335039,23.283183,https://gz.lianjia.com/ershoufang/GZ0002990573.html
银丰花园 精装一房 地铁五号线,银丰花园银丰二街,22206,区府,113.461632,23.11499,https://gz.lianjia.com/ershoufang/GZ0003014324.html
罗马家园 三房南北对流 望花园,罗马家园凯怡庭,41085,南洲,113.328254,23.066535,https://gz.lianjia.com/ershoufang/GZ0002240708.html
锦绣趣园大两房送200方露台，已改四房,锦绣生态园趣园,23902,钟村,113.31477,22.979686,https://gz.lianjia.com/ershoufang/GZ0002249754.html
3房2厅一卫户型，方正又实用保养很好,勤天E品上馆,42353,天河公园,113.380471,23.133792,https://gz.lianjia.com/ershoufang/GZ0002257773.html
珠江园高层两房，交通便利,珠江园,40182,越秀南,113.280678,23.123014,https://gz.lianjia.com/ershoufang/GZ0002913279.html
东璟花园高层南向四房 格局好 采光通透,东璟花园,54321,员村,113.368076,23.128017,https://gz.lianjia.com/ershoufang/GZ0003076187.html
骏景花园 高层南向 保养好,骏景花园南苑骏御轩,53466,棠下,113.391008,23.128238,https://gz.lianjia.com/ershoufang/GZ0003076544.html
骏景花园 南北通透四房 安静舒适,骏景花园南苑骏御轩,52121,棠下,113.391008,23.128238,https://gz.lianjia.com/ershoufang/GZ0003082360.html
豆腐寮 方正三房 环境优美 诚意出售,机关宿舍豆腐寮,70000,小北,113.275387,23.142903,https://gz.lianjia.com/ershoufang/GZ0003041751.html
金雅苑电梯两房望花园,金雅苑,54286,滨江东,113.300504,23.108723,https://gz.lianjia.com/ershoufang/GZ0003049208.html
海运局宿舍 两房一厅 格局方正,晓南二街海运局宿舍,33852,新港西,113.29491,23.094219,https://gz.lianjia.com/ershoufang/GZ0003052659.html
荔湾路 精装1房 出行方便,荔湾路92号大院,20000,陈家祠,113.250815,23.135566,https://gz.lianjia.com/ershoufang/GZ0003056465.html
隽园 安静实用小三房 户型方正,隽园,67105,天河公园,113.367537,23.136859,https://gz.lianjia.com/ershoufang/GZ0003072678.html
金海花园 实用两房 安静望花园,金海花园,63611,龙口西,113.3453,23.146266,https://gz.lianjia.com/ershoufang/GZ0002825183.html
锦绣趣园南街 装修保养好 三房出售,锦绣生态园趣园,20397,钟村,113.31477,22.979686,https://gz.lianjia.com/ershoufang/GZ0002851740.html
富力桃园B区 精致典雅4房 保养好 采光,富力桃园,33000,罗冲围,113.238036,23.15677,https://gz.lianjia.com/ershoufang/GZ0002858135.html
金豪嘉苑 北向两房 地铁物业 飞机户型,金豪嘉苑,59048,滨江东,113.3142,23.107264,https://gz.lianjia.com/ershoufang/GZ0002899230.html
"户型方正,通风采光好",英豪花园一期,29434,金碧,113.306244,23.075056,https://gz.lianjia.com/ershoufang/GZ0002920957.html
朝晖苑 电梯精装两房 温馨舒适,朝晖苑,63195,天河北,113.33815,23.148681,https://gz.lianjia.com/ershoufang/GZ0003004069.html
榕茵路 156号 中层楼层 南北对流,榕溪花园,16439,石井,113.249764,23.215408,https://gz.lianjia.com/ershoufang/GZ0002237141.html
三元里大道 远景新苑 低层三房,远景新苑,20000,机场路,113.255062,23.177621,https://gz.lianjia.com/ershoufang/GZ0002943278.html
尚上名筑 小户型放售,尚上名筑一区,24667,亚运城,113.494651,22.961353,https://gz.lianjia.com/ershoufang/GZ0002991590.html
岭南新世界  精装实用三房  带入户花园,岭南新世界映翠园,42425,白云大道北,113.299723,23.237053,https://gz.lianjia.com/ershoufang/GZ0003032356.html
媒体南村 电梯房 实用两房,亚运城媒体南村,25810,亚运城,113.480916,22.949364,https://gz.lianjia.com/ershoufang/GZ0003035590.html
锦绣香江花园  景观好 3房户型方正,锦绣香江花园山水园,37753,华南,113.342903,23.000994,https://gz.lianjia.com/ershoufang/GZ0003040582.html
竹园小区 客厅方正 采光好,竹园小区,42147,白云大道南,113.278706,23.176821,https://gz.lianjia.com/ershoufang/GZ0003041345.html
利雅湾 精装三房 视野开阔,利雅湾,96923,珠江新城中,113.336252,23.12255,https://gz.lianjia.com/ershoufang/GZ0003043564.html
风行牛奶宿舍 方正两房 采光通风好,风行牛奶宿舍,23801,沙太南,113.336316,23.177174,https://gz.lianjia.com/ershoufang/GZ0003046171.html
实用两房 保养新净 框架结构,晓南花园晓南一街,28947,新港西,113.293166,23.094243,https://gz.lianjia.com/ershoufang/GZ0003050487.html
东方白云花园 南向两房 中高楼层 精装修,东方白云花园2座鸿云轩,23649,市桥,113.396805,22.954594,https://gz.lianjia.com/ershoufang/GZ0003051155.html
保利西海岸星海花园 证过两年东南向望花园,保利西海岸星海花园,34293,金沙洲,113.217434,23.172723,https://gz.lianjia.com/ershoufang/GZ0003051468.html
尚领时代 南向带主套三房 安静望花园,尚领时代,45003,金碧,113.294881,23.078837,https://gz.lianjia.com/ershoufang/GZ0002939468.html
保利白云山庄 温馨三房 南向复式 望花园,保利白云山庄傲云居,34280,白云大道北,113.298699,23.211943,https://gz.lianjia.com/ershoufang/GZ0002942514.html
电信宿舍楼 带天台 视野开阔,电信局宿舍,9434,新塘,113.614618,23.125887,https://gz.lianjia.com/ershoufang/GZ0002997795.html
荷景花园 136方南北对流 实用大三房,荷景花园二区,9412,沙湾,113.354949,22.911526,https://gz.lianjia.com/ershoufang/GZ0003007592.html
粤垦路 金燕花园 电梯三房 近地铁,金燕花园,39405,粤垦,113.337188,23.163534,https://gz.lianjia.com/ershoufang/GZ0003008777.html
华建小区 方正四房 西南靓向 楼层好,华建小区,51220,天河公园,113.364087,23.133079,https://gz.lianjia.com/ershoufang/GZ0003036000.html
利雅湾 精装三房 视野开阔,利雅湾,96923,珠江新城中,113.336252,23.12255,https://gz.lianjia.com/ershoufang/GZ0003043564.html
实用两房 保养新净 框架结构,晓南花园晓南一街,28947,新港西,113.293166,23.094243,https://gz.lianjia.com/ershoufang/GZ0003050487.html
晓港湾 电梯精致两房 采光通风佳,晓港湾惠侨苑,41044,金碧,113.299526,23.074463,https://gz.lianjia.com/ershoufang/GZ0003056537.html
祈福新村 湖景南向三房出售,祈福新村湖景居,25890,祈福,113.334829,22.96408,https://gz.lianjia.com/ershoufang/GZ0003056602.html
泽德花园 少有房源 中楼层,泽德花园,22839,同德围,113.245375,23.181836,https://gz.lianjia.com/ershoufang/GZ0003041957.html
利雅湾 精装三房 视野开阔,利雅湾,96923,珠江新城中,113.336252,23.12255,https://gz.lianjia.com/ershoufang/GZ0003043564.html
保利西海岸星海花园 证过两年东南向望花园,保利西海岸星海花园,34293,金沙洲,113.217434,23.172723,https://gz.lianjia.com/ershoufang/GZ0003051468.html
湖景居 低楼层 南向两房 采光好,祈福新村湖景居,24430,祈福,113.334829,22.96408,https://gz.lianjia.com/ershoufang/GZ0003063397.html
东方新世界熹园 东北向3房 带主套,东方新世界熹园,80412,天河公园,113.365122,23.135549,https://gz.lianjia.com/ershoufang/GZ0003095408.html
华建大厦 方正三房 安静舒适,华建大厦,65103,天河公园,113.368067,23.137831,https://gz.lianjia.com/ershoufang/GZ0003103163.html
碧海湾 南向望江大宅，安静舒适，温馨实用,碧海湾,63000,珠江新城西,113.325778,23.120539,https://gz.lianjia.com/ershoufang/GZ0002326194.html
愉景南苑 户型方正实用 通风采光好修改房,愉景南苑乐天轩,55556,新港西,113.318063,23.099465,https://gz.lianjia.com/ershoufang/GZ0003022731.html
珠江新岸 一房一厅，带阳台,珠江新岸公寓,53877,滨江东,113.321362,23.109582,https://gz.lianjia.com/ershoufang/GZ0003030898.html
中海金沙里 3室2厅 330万,中海金沙里,30841,金沙洲,113.212526,23.187025,https://gz.lianjia.com/ershoufang/GZ0002730092.html
珠岛花园五期 4室2厅 365万,珠岛花园五期,33486,大坦沙,113.22948,23.13575,https://gz.lianjia.com/ershoufang/GZ0002981844.html
淘金家园四期 实用四房出售,淘金家园峯璟,76203,淘金,113.300419,23.149032,https://gz.lianjia.com/ershoufang/GZ0003037014.html
黄埔雅苑 园中位置 南向三房,黄埔新村黄埔雅苑,35938,区府,113.467182,23.107624,https://gz.lianjia.com/ershoufang/GZ0003044891.html
东凌广场 南向精装大三房 景观大宅,东凌广场,21802,新塘,113.601127,23.142793,https://gz.lianjia.com/ershoufang/GZ0002867933.html
中海名都 高层江景 东南向 通风对流,中海名都,59048,滨江中,113.282006,23.114544,https://gz.lianjia.com/ershoufang/GZ0002560275.html
机场路百荣园 望花园 望游泳池 两房一厅,百荣园,22205,机场路,113.266032,23.19092,https://gz.lianjia.com/ershoufang/GZ0003105169.html
保利心语 户型方正 双阳台 东向采光好,保利心语花园,89610,珠江新城中,113.336179,23.126773,https://gz.lianjia.com/ershoufang/GZ0002855614.html
利雅湾 温馨三房刚需 安静舒适 南向,利雅湾,95000,珠江新城中,113.336252,23.12255,https://gz.lianjia.com/ershoufang/GZ0003035449.html
龙光风景华庭 北向精装三房 格局方正,龙光峰景华庭,27222,科学城,113.456464,23.194766,https://gz.lianjia.com/ershoufang/GZ0003058638.html
富力桃园D区，实用三房，诚心出售,富力桃园,35000,罗冲围,113.238036,23.15677,https://gz.lianjia.com/ershoufang/GZ0002755447.html
中怡城市花园 南向大三房,中怡城市花园,76529,天河北,113.333368,23.149245,https://gz.lianjia.com/ershoufang/GZ0002827667.html
利雅湾 南向四房 格局方正 望小蛮腰,利雅湾,85347,珠江新城中,113.336252,23.12255,https://gz.lianjia.com/ershoufang/GZ0002862548.html
黄埔雅苑 舒适3房 南向 带主套,黄埔新村黄埔雅苑,39001,区府,113.467182,23.107624,https://gz.lianjia.com/ershoufang/GZ0002923091.html
东方白云花园 东南向单边位 有车位,东方白云花园18座彩云轩,24038,市桥,113.395107,22.954499,https://gz.lianjia.com/ershoufang/GZ0002946048.html
星汇金沙 环境优美 温馨三房,星汇金沙雅筑二期,33656,金沙洲,113.199926,23.162257,https://gz.lianjia.com/ershoufang/GZ0002957268.html
东方白云花园 小区中间位 有60平花园,东方白云花园,21008,市桥,113.397452,22.95479,https://gz.lianjia.com/ershoufang/GZ0002958214.html
汇海花园 精致三房 高层望江 东南望花园,保利西海岸汇海花园,39187,金沙洲,113.216337,23.178833,https://gz.lianjia.com/ershoufang/GZ0002983215.html
三元里大道 晓翠苑 电梯两房 送天台花园,晓翠苑逸意居,26081,机场路,113.260629,23.188179,https://gz.lianjia.com/ershoufang/GZ0002999917.html
盈翠华庭 实用大两房 中层单位 精致装修,盈翠华庭盈逸居,35450,广园路,113.27954,23.176043,https://gz.lianjia.com/ershoufang/GZ0003005755.html
光大花园中海锦榕湾 三房带主套 正对花园,光大花园中海锦榕湾,63431,工业大道北,113.26517,23.091716,https://gz.lianjia.com/ershoufang/GZ0003018689.html
棠德花园 格局方正 环境优美 精装修,棠德花园E区,31646,棠下,113.391014,23.140456,https://gz.lianjia.com/ershoufang/GZ0003042936.html
锦绣趣园 南向2房出售,锦绣生态园趣园,25169,钟村,113.31477,22.979686,https://gz.lianjia.com/ershoufang/GZ0003051262.html
金雅苑电梯两房 住家装修 北向望花园,金雅苑,56452,滨江东,113.300504,23.108723,https://gz.lianjia.com/ershoufang/GZ0003051537.html
南贤大街 温馨舒适,大江苑南贤大街,26826,新港西,113.320883,23.105407,https://gz.lianjia.com/ershoufang/GZ0003059306.html
交通方便 标准两房 格局方正,仓边路福恩里,43265,农讲所,113.279897,23.133613,https://gz.lianjia.com/ershoufang/GZ0003067966.html
鸣翠花园一房一厅装修还算可以采光通风还行,鸣翠花园,30127,工业大道南,113.292363,23.073904,https://gz.lianjia.com/ershoufang/GZ0003071305.html
吉祥上街 实用三房 生活配套完善 保养好,如意二马路吉祥上街,20316,洛溪,113.307799,23.048537,https://gz.lianjia.com/ershoufang/GZ0003023099.html
天隆花苑 天河北 电梯2房 户型方正,天隆花苑,46923,天润路,113.343302,23.152429,https://gz.lianjia.com/ershoufang/GZ0003028782.html
水韵蓝湾 电梯两房  毛坯房,水韵蓝湾南区,23419,沙湾,113.406969,22.914793,https://gz.lianjia.com/ershoufang/GZ0003033441.html
东怡园 正南向 楼层好 带车位,东怡园,24249,市桥,113.386095,22.939541,https://gz.lianjia.com/ershoufang/GZ0002756107.html
恒生花园 舒适5房两厅 刚需户型,恒生花园,16949,华南,113.393116,23.014804,https://gz.lianjia.com/ershoufang/GZ0002766590.html
天河御品 精装电梯三房,天河御品,48849,同和,113.33703,23.188125,https://gz.lianjia.com/ershoufang/GZ0002816892.html
林和西南粤阁 华阳** 大三房 精装修,南粤阁,47037,天河北,113.328133,23.152069,https://gz.lianjia.com/ershoufang/GZ0002819804.html
金碧湾 望江单位 高层南向四房带主套,金碧湾,59028,工业大道北,113.260314,23.09686,https://gz.lianjia.com/ershoufang/GZ0002822926.html
沾益直街 实用3房 小区安静 南向采光好,林和东小区,52198,天河北,113.335857,23.15449,https://gz.lianjia.com/ershoufang/GZ0002861106.html
时代倾城 精致三房 环境优美,时代倾城,29224,华南,113.405197,23.004871,https://gz.lianjia.com/ershoufang/GZ0002959648.html
华景新城三期 精装三房 楼层好,华景新城叠翠居,46512,华景新城,113.36428,23.143982,https://gz.lianjia.com/ershoufang/GZ0002964233.html
天河东路 精装修 大三房 拎包入住,天河东路,46053,体育中心,113.340034,23.143001,https://gz.lianjia.com/ershoufang/GZ0002996476.html
芳满庭苑 高层无遮挡 通风采光好,华景新城芳满庭园,51818,华景新城,113.369342,23.147573,https://gz.lianjia.com/ershoufang/GZ0002270489.html
省怡园**，低楼层 南北向,怡园小区,42222,区府,113.458036,23.107971,https://gz.lianjia.com/ershoufang/GZ0002299707.html
翡翠绿洲森林半岛 实用四房,翡翠绿洲森林半岛,21053,新塘,113.565886,23.142768,https://gz.lianjia.com/ershoufang/GZ0002422433.html
诺德名都 温馨两房房  诚意卖房,自在城市花园三期诺德名都,30084,华南,113.351946,22.995141,https://gz.lianjia.com/ershoufang/GZ0002442298.html
空中别墅花园 一家三代 海珠高层电梯复式,宏宇广场,38003,宝岗,113.269893,23.106602,https://gz.lianjia.com/ershoufang/GZ0002601899.html
南国奥园 电梯三房 欧式风格 双**地铁,南国奥林匹克花园悉尼,33146,华南,113.327981,22.99136,https://gz.lianjia.com/ershoufang/GZ0003029718.html
晓园新村 3房 通风采光好,晓园新村晓园新,27600,昌岗,113.287625,23.092596,https://gz.lianjia.com/ershoufang/GZ0003096639.html
温馨实用两房单位 采光通风好,海珠半岛花园,50000,滨江东,113.301627,23.109824,https://gz.lianjia.com/ershoufang/GZ0003098947.html
自在城市花园 精致装修 实用三房,自在城市花园自在华庭,27604,华南,113.356896,22.994109,https://gz.lianjia.com/ershoufang/GZ0003099048.html
富力路 中层大两房 间隔方正 厅出阳台修,市政东苑,20632,南岸路,113.243427,23.139201,https://gz.lianjia.com/ershoufang/GZ0003101066.html
万科金域蓝湾 两房 交通生活便利,金域蓝湾,43732,金沙洲,113.21707,23.160609,https://gz.lianjia.com/ershoufang/GZ0003101071.html
新世界逸彩庭园E区 3室2厅 455万,新世界逸彩庭园E区,38727,滘口,113.213797,23.115935,https://gz.lianjia.com/ershoufang/GZ0002882090.html
南北对流两房 户型通透,亚运城运动员村四区,26089,亚运城,113.491196,22.95229,https://gz.lianjia.com/ershoufang/GZ0003043657.html
翠湖山庄 方正两房 小区配套齐 居家适宜,翠湖山庄,52198,天河公园,113.359064,23.132577,https://gz.lianjia.com/ershoufang/GZ0003052195.html
金碧世纪花园 采光充足 精装修 望花园,金碧世纪花园,36111,区府,113.435542,23.120228,https://gz.lianjia.com/ershoufang/GZ0003068325.html
南雅苑 南向三房 户型方正 采光好,南雅苑体育东横街,49383,天河南,113.337505,23.134286,https://gz.lianjia.com/ershoufang/GZ0003070800.html
金碧新城 2室 望花园 新装修,金碧新城,33222,石井,113.249526,23.209834,https://gz.lianjia.com/ershoufang/GZ0003072267.html
蓬莱正街 地铁两房 户型方正,恩宁路蓬莱正街,22865,黄沙,113.244648,23.11955,https://gz.lianjia.com/ershoufang/GZ0003087377.html
白云雅苑 精装两房 方正好用,白云雅苑云雅大街,24858,同德围,113.240849,23.182228,https://gz.lianjia.com/ershoufang/GZ0003028521.html
翠山蓝天苑 方正实用 电梯中层,华南碧桂园翠山蓝天苑,34653,华南,113.362499,23.009352,https://gz.lianjia.com/ershoufang/GZ0002888063.html
金山谷四期领仕 电梯楼三房 景观单位,金山谷四期,0,祈福,113.351042,22.975614,https://gz.lianjia.com/ershoufang/GZ0003070633.html
南北对流内3房经典户型 看楼方便,广州星河湾悦心园,37198,华南,113.346517,23.029597,https://gz.lianjia.com/ershoufang/GZ0002949516.html
汇城花园电梯房 电梯中层,汇城花园,36458,滘口,113.220708,23.113561,https://gz.lianjia.com/ershoufang/GZ0002967139.html
金碧花园第二金碧 3室2厅 331万,金碧花园第二金碧,40366,金碧,113.290416,23.075766,https://gz.lianjia.com/ershoufang/GZ0002978760.html
鸿城花园 电梯三房 采光好,鸿城花园,24561,市桥,113.372988,22.952444,https://gz.lianjia.com/ershoufang/GZ0002805815.html
保利西海岸 东南靓向 交通便利,保利西海岸汇海花园,38925,金沙洲,113.216337,23.178833,https://gz.lianjia.com/ershoufang/GZ0002809902.html
户型方正 南向大五房 安静舒适，温馨实用,碧海湾,80000,珠江新城西,113.325778,23.120539,https://gz.lianjia.com/ershoufang/GZ0002817227.html
天銮 南向一线望江带装修,天汇广场天銮,73359,珠江新城中,113.336477,23.120336,https://gz.lianjia.com/ershoufang/GZ0002840600.html
粤海丽江花园 东南朝向 安静楼层高景观好,粤海丽江花园,86951,珠江新城东,113.342262,23.128503,https://gz.lianjia.com/ershoufang/GZ0002861857.html
都市兰亭 方正三房 安静小区,都市兰亭花园,58242,员村,113.369312,23.123758,https://gz.lianjia.com/ershoufang/GZ0002903539.html
荔港南湾 江景四房 温馨舒适,荔港南湾蓝钻水岸,40253,南岸路,113.235087,23.141966,https://gz.lianjia.com/ershoufang/GZ0002947258.html
富力御龙庭 精致西南向两房,富力御龙庭,70395,淘金,113.302276,23.148883,https://gz.lianjia.com/ershoufang/GZ0002986980.html
星河湾荟心园 正南北对流大3房,广州星河湾荟心园,37745,华南,113.346408,23.033435,https://gz.lianjia.com/ershoufang/GZ0003079846.html
星御翠园 居住舒适 生活配套齐,星御翠园,46032,广州大道南,113.305998,23.087028,https://gz.lianjia.com/ershoufang/GZ0002269704.html
中海锦榕湾 三房带主套 近地铁,光大花园中海锦榕湾,65050,工业大道北,113.26517,23.091716,https://gz.lianjia.com/ershoufang/GZ0002446445.html
佳福阁 精致三房 采光通风好,佳福阁,40449,天河公园,113.379815,23.127289,https://gz.lianjia.com/ershoufang/GZ0003010863.html
第三金碧花园 南向大三房 采光通风佳,金碧花园第三金碧,46612,金碧,113.295173,23.071178,https://gz.lianjia.com/ershoufang/GZ0003050540.html
富力半岛花园 实用大三房,富力半岛花园,36538,罗冲围,113.235918,23.147373,https://gz.lianjia.com/ershoufang/GZ0003052198.html
省农机所 实用三房 交通方便,省农机所,57918,天润路,113.351021,23.149024,https://gz.lianjia.com/ershoufang/GZ0003063004.html
金湖雅苑，大三房，装修不错，采光佳,金湖雅苑,27347,沙太北,113.345211,23.199024,https://gz.lianjia.com/ershoufang/GZ0003025150.html
大北路 大两房,大北路,10221,市桥,113.372841,22.949073,https://gz.lianjia.com/ershoufang/GZ0002724039.html
粤海丽江花园 东南向望珠江公园 满五年,粤海丽江花园,98901,珠江新城东,113.342262,23.128503,https://gz.lianjia.com/ershoufang/GZ0002724324.html
粤韵庭园 正南向两居 格局超靓 精装婚房,粤韵庭园,48630,天河公园,113.375046,23.128159,https://gz.lianjia.com/ershoufang/GZ0002772228.html
富力桃园 两房 楼层视野开阔 精致装修,富力桃园,33333,罗冲围,113.238036,23.15677,https://gz.lianjia.com/ershoufang/GZ0002800008.html
锦云峰 电梯两房 通风采光好 装修保养好,岭南新世界锦云峰,43290,白云大道北,113.305508,23.242835,https://gz.lianjia.com/ershoufang/GZ0002818875.html
第二金碧花园 高层北向小三房 精致温馨,金碧花园第二金碧,40000,金碧,113.290416,23.075766,https://gz.lianjia.com/ershoufang/GZ0002832891.html
凤仪苑 复式精装 户型方正,碧桂园凤凰城凤仪苑,20059,新塘,113.579643,23.140134,https://gz.lianjia.com/ershoufang/GZ0002875270.html
东方新世界 二房一厅 方正实用,东方新世界,63623,天河公园,113.366265,23.138473,https://gz.lianjia.com/ershoufang/GZ0002876465.html
华景新城 翡翠居 温馨三居室,华景新城翡翠居,44872,华景新城,113.364644,23.142827,https://gz.lianjia.com/ershoufang/GZ0002882858.html
佳福阁 精致三房 采光通风好,佳福阁,44277,天河公园,113.379815,23.127289,https://gz.lianjia.com/ershoufang/GZ0002937607.html
凤凰城凤仪苑经典四房,碧桂园凤凰城凤仪苑,20448,新塘,113.579643,23.140134,https://gz.lianjia.com/ershoufang/GZ0002964068.html
凤锦苑南向四房经典户型 精装修带家私家电,碧桂园凤凰城凤锦苑,27958,新塘,113.588626,23.159484,https://gz.lianjia.com/ershoufang/GZ0002984853.html
汇景新城，高层单位，南北通透，视野开阔,汇景新城龙熹山,59350,五山,113.382523,23.154048,https://gz.lianjia.com/ershoufang/GZ0002985075.html
新市 南北对流 格局好 实用两房,广花五路新市新街,18843,新市,113.267191,23.197451,https://gz.lianjia.com/ershoufang/GZ0003003567.html
汇侨新城北区 电梯高层 韩式装修,汇侨新城北区,28667,新市,113.26402,23.206519,https://gz.lianjia.com/ershoufang/GZ0003004043.html
黄埔花园 方正三房望花园 安静不吵,黄埔花园,42670,区府,113.462888,23.104905,https://gz.lianjia.com/ershoufang/GZ0003009818.html
凤馨苑 南向三房 景观位置,碧桂园凤凰城凤馨苑,31759,新塘,113.606996,23.147009,https://gz.lianjia.com/ershoufang/GZ0003014075.html
凤锦苑 精装三房 视野好,碧桂园凤凰城凤锦苑,25622,新塘,113.588626,23.159484,https://gz.lianjia.com/ershoufang/GZ0003042139.html
龙光峰景华庭 户型方正 温馨舒适大两房,龙光峰景华庭,26458,科学城,113.456464,23.194766,https://gz.lianjia.com/ershoufang/GZ0003056206.html
翡翠绿洲 森林半岛 户型方正,翡翠绿洲森林半岛,18519,新塘,113.565886,23.142768,https://gz.lianjia.com/ershoufang/GZ0002558718.html
水城复式单位 带花园,祈福水城,21853,沙湾,113.36063,22.915239,https://gz.lianjia.com/ershoufang/GZ0002609867.html
同德花园 小区环境优美 出门交通方便,同德花园同雅街,20918,同德围,113.24113,23.173907,https://gz.lianjia.com/ershoufang/GZ0002993865.html
荔园小区 方正两房 中间楼层,荔园小区荔香路,25163,区府,113.450993,23.104283,https://gz.lianjia.com/ershoufang/GZ0003099943.html
金海岸花园皇玛 花园洋房 实用三房,金海岸花园皇玛,30986,市桥,113.413363,22.938178,https://gz.lianjia.com/ershoufang/GZ0003098747.html
骏鸿花园 南向三房 装修保养很靓,骏鸿花园,30516,区府,113.466311,23.10336,https://gz.lianjia.com/ershoufang/GZ0002978205.html
尚东尚筑物业 小区管理.电梯中层南向,尚东尚筑,30406,市桥,113.413562,22.943748,https://gz.lianjia.com/ershoufang/GZ0002993316.html
高档领峰园 户型方正南向大四房,领峰园,79060,珠江新城中,113.335651,23.128388,https://gz.lianjia.com/ershoufang/GZ0002721058.html
晓港湾 新装修两房 温馨适合自住,晓港湾惠侨苑,38299,金碧,113.299526,23.074463,https://gz.lianjia.com/ershoufang/GZ0002813297.html
东南向高层望江 视野开阔 精装修,中海金沙湾,37714,金沙洲,113.214703,23.14561,https://gz.lianjia.com/ershoufang/GZ0002874733.html
广州雅居乐花园 一尺山居 中高楼层采光好,广州雅居乐花园一尺山居,38795,华南,113.365809,23.015465,https://gz.lianjia.com/ershoufang/GZ0002955774.html
来福苑 南北对流带平台花园,来福园,25784,市桥,113.372082,22.956453,https://gz.lianjia.com/ershoufang/GZ0003111179.html
电梯三房 公寓性质 价格实惠,骏业阁,21333,西关,113.25121,23.121744,https://gz.lianjia.com/ershoufang/GZ0003017550.html
凤凰城凤雅苑 精装南向独立别墅 南北通透,碧桂园凤凰城凤雅苑,31250,新塘,113.595441,23.150827,https://gz.lianjia.com/ershoufang/GZ0002315038.html
江南西 低楼层 楼邻新,紫光苑,37500,江南大道,113.275128,23.104714,https://gz.lianjia.com/ershoufang/GZ0002888601.html
锦绣花园南区三房两卫 东西对流 新装修,锦绣花园南区,20830,钟村,113.31594,22.976988,https://gz.lianjia.com/ershoufang/GZ0002908452.html
华景新城 泽晖苑 精装三房安静小区,华景新城泽晖苑,56687,华景新城,113.366338,23.144938,https://gz.lianjia.com/ershoufang/GZ0002927005.html
汇雅花园 实用两房 生活配套齐,汇雅花园,14977,白云大道北,113.335039,23.283183,https://gz.lianjia.com/ershoufang/GZ0002931720.html
实用舒适两房 配套完善,淘金路,54011,淘金,113.294135,23.145406,https://gz.lianjia.com/ershoufang/GZ0002964374.html
五羊小区 低层实用两房 装修好 读东实,五羊小区H区,55746,五羊新城,113.320616,23.127527,https://gz.lianjia.com/ershoufang/GZ0002984160.html
侨林苑三期 精致一房 户型方正,侨林苑三期,80082,天河北,113.336852,23.150266,https://gz.lianjia.com/ershoufang/GZ0002986483.html
东圃富力花园 南向3房 中楼层 望花园,富力花园B栋,21765,东圃,113.429118,23.126316,https://gz.lianjia.com/ershoufang/GZ0003014542.html
富庭东园 精装三房 地铁 成熟小区,富庭东园3街,27586,大石,113.323027,23.025299,https://gz.lianjia.com/ershoufang/GZ0003050360.html
恒骏花园 电梯三房,恒骏花园,44994,同和,113.332929,23.18902,https://gz.lianjia.com/ershoufang/GZ0003040371.html
城南源著 电梯一房一厅 一线望江,雅居乐城南源著,27496,沙湾,113.372717,22.915184,https://gz.lianjia.com/ershoufang/GZ0003052858.html
中海康城 方正大三房 望花园 安静舒适,中海康城郁金香街,38482,黄村,113.407605,23.14038,https://gz.lianjia.com/ershoufang/GZ0003071975.html
云珠花园，北向，小区管理,云珠花园,22124,旧区,113.23655,23.40386,https://gz.lianjia.com/ershoufang/GZ0003077428.html
